~Version information block
VERS.                            2.0:CWLS Log ASCII Standard-VERSION 2.0
WRAP.                            NO:One line per depth step
~Well information block
# MNEM.UNIT         DATA                       DESCRIPTION OF MNEMONIC
#---------      -------------------           -------------------------------
STRT.M                           370.00: Начальная глубина
STOP.M                          2251.00: Конечная  глубина
STEP.M                             0.20: Шаг квантования по глубине
NULL.                           -999.25: Отсутствие данных
WELL.                                11: Скважина
FLD .                              KURK: Площадь
LOC .                                  : Место
STAT.                                  : Область
CTRY.                            RUSSIA: Страна
COMP.                                  : Заказчик
SRVC.                                  : Исполнитель
DATE.                        18.12.1984: Дата каротажа
METD.                              BKZ5: Метод
SCAL.                               500: Масштаб по глубине
UWI. M38076KURK11S1:
#
~Parameter information block
#MNEM   .UNIT           VALUE                 DESCRIPTION OF MNEMONIC
#------------------    --------               ---------------------------
CATEGORY.                               -999.25:"Категория скважины"
DATED   .DD.MM.YYYY                     -999.25:"Дата разбуривания интервала (ДД.ММ.ГГГГ)"
FACE    .m                                 2251:"Глубина пробуренного забоя скважины(м)"
CBDA    .m                              -999.25:"Глубина текущего забоя скважины (м)"
ALT     .m                              -999.25:"Альтитуда стола ротора(m)"
SCD     .mm                               215.9:"Номинальный диаметр скважины (мм)"
CCD     .mm                             -999.25:"Диаметр кондуктора (мм)"
CD      .mm                             -999.25:"Диаметр колонны (мм)"
DCC     .m                              -999.25:"Глубина спуска кондуктора (м)"
CDP     .m                              -999.25:"Глубина спуска колонны (м)"
DFT     .                               -999.25:"Тип промывочной жидкости в скважине"
DFD     .g/s3                               1.2:"Плотность промывочной жидкости (г/см3)"
DFR     .Omm                            -999.25:"Сопротивление бурового раствора (Омм)"
RMF     .Omm                            -999.25:"Сопротивление фильтра промывочной жидкости (Омм)"
DFL     .sm3/30min                            9:"Водоотдача бурового раствора (см3/30мин)"
DFSLT   .g/l                            -999.25:"Минерализация промывачной жидкости (г/л)"
DFV     .s                                   35:"Вязкость бурового раствора (сек)"
RAUGK   .imp/min                        -999.25:"Коэффициент перехода ГК (имп/мкР/ч)"
RAU     .imp/min                        -999.25:"Коэффициент перехода НГК (усл.ед/имп/мин)"
RAUB    .imp/min                        -999.25:"Коэффициент перехода для большого зонда ННК (усл.ед/имп/мин)"
RAUS    .imp/min                        -999.25:"Коэффициент перехода для малого зонда ННК (усл.ед/имп/мин)"
TDLB    .imp/min                        -999.25:"Счет в эталонировочном устройстве ИННК - большой зонд (имп/мин)"
TDLS    .imp/min                        -999.25:"Счет в эталонировочном устройстве ИННК - малый зонд (имп/мин)"
TPNLGK  .s                              -999.25:"Постоянная времени ГК (сек)"
TPNLNK  .s                              -999.25:"Постоянная времени ННК (сек)"
TPNLNGK .s                              -999.25:"Постоянная времени НГК (сек)"
TPNLGGK .s                              -999.25:"Постоянная времени ГГК (сек)"
TPNLINNK.s                              -999.25:"Постоянная времени ИННК (сек)"
KNGK    .s                              -999.25:"КNGK"
SPEED   .m/h                            -999.25:"Скорость записи (м/ч)"
#
~Curve information block
DEPT.M                                  :
N11M05A.Omm                            : потенциал-зонд N11.0M0.5A,Ом.м
A2M05N.Omm                             : Подошвенный градиент-зонд A2.0M0.5N,Омм
PS.mV                                  : Потенциал самопроизвольной поляризации,мВ
~Other information block
#MNEM.UNIT                VALUE                 DESCRIPTION OF MNEMONIC
#-----------------      ------------          -------------------------------------------
TYPE.                                       Raw:"Тип данных"
TYPE1.                                      ost:"Тип записи"
KOG.                                    -999.25:"Тип кожуха прибора"
SRVC5.                                  -999.25:"Фамилия оператора каротажной партии"
NAME.                                  Bakanova:"Фамилия подготовившего las файл"
SRVC2.                                Geoproekt:"Предприятие, подготовившее LAS файл"
~A DEPT.M  N11M05A    A2M05N      PS
# ...
1720.40     9.908     8.529    94.817
1720.60     9.908     8.406    95.732
1720.80     9.664     8.529    95.732
1721.00     9.541     9.025    94.817
1721.20     9.419     9.768    93.598
1721.40     9.174     8.901    93.293
1721.60     9.052     8.282    93.598
1721.80     8.930     7.786    94.512
1722.00     8.807     7.539    95.122
1722.20     8.685     7.539    94.817
1722.40     8.563     7.786    93.598
1722.60     8.440     7.539    92.683
1722.80     8.318     7.043    92.378
1723.00     8.318     6.548    92.378
1723.20     8.196     6.053    92.988
1723.40     8.073     6.053    94.207
1723.60     7.951     7.167    95.427
1723.80     7.951     7.663    96.646
1724.00     8.073     7.415    96.951
1724.20     8.196     7.043    97.866
1724.40     8.318     6.672    98.476
1724.60     8.563     6.300    98.171
1724.80     8.685     7.910    97.256
1725.00     8.930     8.529    96.341
1725.20     9.297     8.158    95.122
1725.40     9.419     7.663    94.207
1725.60     9.541     7.167    93.293
1725.80     9.419     8.158    92.378
1726.00     9.419     9.892    91.768
1726.20     9.419    10.263    91.463
1726.40     9.419    10.015    91.768
1726.60     9.297     9.644    92.683
1726.80     9.174     9.149    93.598
1727.00     8.930     8.653    94.512
1727.20     8.807     8.034    94.512
1727.40     8.685     7.910    94.207
1727.60     8.807     8.406    94.512
1727.80     9.174     9.149    95.427
1728.00     9.541     7.663    96.037
1728.20     9.786     8.777    96.646
1728.40     9.664    10.139    97.561
1728.60     9.541    10.635    98.780
1728.80     9.419    10.387   100.000
1729.00     9.786     9.644   100.915
1729.20    10.520     9.025   101.829
1729.40    10.765     9.149   102.744
1729.60    10.765    10.635   103.963
1729.80    10.887    11.254   104.573
1730.00    11.743    10.882   104.878
1730.20    12.599    10.263   104.878
1730.40    13.211     9.892   104.573
1730.60    13.333     9.644   104.573
1730.80    13.333    11.873   104.268
1731.00    13.211    13.359   103.963
1731.20    12.966    14.350   103.963
1731.40    12.722    13.978   104.268
1731.60    12.477    13.359   104.573
1731.80    12.110    12.616   105.183
1732.00    11.865    11.997   105.488
1732.20    11.621    11.254   106.098
1732.40    11.621    10.511   106.402
1732.60    11.743    10.015   107.317
1732.80    11.988     9.892   107.927
1733.00    12.110    11.254   108.537
1733.20    11.988    11.997   109.146
1733.40    11.988    12.864   109.451
1733.60    11.743    13.854   109.756
1733.80    11.498    14.721   109.146
1734.00    11.376    14.845   108.537
1734.20    11.254    14.721   107.927
1734.40    11.254    14.350   107.012
1734.60    11.254    13.854   105.793
1734.80    11.376    13.483   104.573
1735.00    11.621    13.483   103.659
1735.20    12.110    13.607   103.049
1735.40    12.599    13.483   102.439
1735.60    13.089    12.864   101.829
1735.80    12.966    12.368   101.829
1736.00    12.844    12.492   101.829
1736.20    12.599    12.740   101.829
1736.40    12.355    13.111   102.134
1736.60    12.110    13.111   102.744
1736.80    12.110    12.492   102.744
1737.00    12.110    11.625   103.354
1737.20    12.599    10.759   103.354
1737.40    12.844     9.768   103.659
1737.60    13.211     9.149   103.963
1737.80    13.211     8.901   103.963
1738.00    13.089    10.387   103.659
1738.20    12.966    12.368   103.659
1738.40    12.599    13.978   103.049
1738.60    12.355    15.712   102.744
1738.80    11.988    14.721   102.134
1739.00    11.621    13.854   101.524
1739.20    11.376    12.988   100.915
1739.40    11.498    12.368   100.305
1739.60    11.988    15.217    99.695
1739.80    12.477    16.579    99.390
1740.00    12.844    17.693    99.390
1740.20    13.211    17.570    98.476
1740.40    13.700    16.331    97.866
1740.60    14.067    15.217    97.256
1740.80    13.578    14.102    96.341
1741.00    13.089    13.111    96.037
1741.20    12.355    11.997    96.341
1741.40    11.743    10.882    97.561
1741.60    11.131     9.892    99.085
1741.80    10.765     9.149   100.915
1742.00    10.520     8.282   102.134
1742.20    11.131    11.502   103.049
1742.40    11.743    14.969   103.049
1742.60    12.355    17.446   102.439
1742.80    12.844    16.579   102.134
1743.00    12.599    14.721   102.134
1743.20    11.988    11.625   102.134
1743.40    11.498     9.768   102.744
1743.60    11.009     8.034   103.659
1743.80    10.642     6.672   104.268
1744.00    10.887     6.300   105.183
1744.20    10.887     8.777   105.793
1744.40    10.887     8.901   106.707
1744.60    10.765     9.520   107.622
1744.80    10.642     8.901   108.841
1745.00    10.642     8.653   109.756
1745.20    10.765     8.529   110.366
1745.40    11.376    10.139   110.976
1745.60    12.110    13.731   110.976
1745.80    13.333    15.217   110.671
1746.00    14.190    15.836   110.061
1746.20    14.801    15.588   109.146
1746.40    15.291    20.418   108.232
1746.60    15.046    23.019   107.317
1746.80    14.679    23.762   106.402
1747.00    14.801    21.904   105.793
1747.20    14.190    20.046   105.183
1747.40    13.578    18.065   104.878
1747.60    12.844    16.207   104.573
1747.80    13.211    13.483   104.573
1748.00    13.945    13.111   104.878
1748.20    15.046    12.864   105.183
1748.40    15.046    12.616   105.488
1748.60    14.801    12.121   105.488
1748.80    14.312    11.873   105.183
1749.00    13.945    11.625   105.183
1749.20    13.333    12.988   104.878
1749.40    12.599    16.703   104.268
1749.60    11.988    19.923   103.963
1749.80    11.376    20.046   103.049
1750.00    10.887    18.684   102.439
1750.20    10.642    17.198   101.829
1750.40    10.765    15.588   100.915
1750.60    10.887    13.978   100.610
1750.80    10.887    12.245   101.220
1751.00    10.765    10.387   101.524
1751.20    10.642     8.901   102.134
1751.40    10.642     9.768   102.439
1751.60    10.765    10.263   102.439
1751.80    11.009    10.759   102.134
1752.00    11.498    10.882   102.134
1752.20    11.865    10.511   102.134
1752.40    12.110     9.892   102.134
1752.60    12.110     9.396   102.439
1752.80    11.743     9.149   103.049
1753.00    11.498     9.396   103.354
1753.20    11.131     9.520   103.963
1753.40    10.765     9.644   104.878
1753.60    10.520     9.396   105.793
1753.80    10.275     9.272   106.707
1754.00    10.153     9.149   107.927
1754.20    10.398     9.025   108.841
1754.40    10.520     8.777   110.061
1754.60    10.642     8.529   110.976
1754.80    10.642     8.158   110.671
1755.00    10.520     7.786   110.061
1755.20    10.275     7.539   108.841
1755.40    10.153     7.291   107.927
1755.60    10.153     7.415   107.317
1755.80    10.398     8.529   107.622
1756.00    10.887    11.749   107.317
1756.20    11.254    13.731   107.012
1756.40    11.498    12.616   106.402
1756.60    11.254    11.749   105.793
1756.80    11.131    10.387   105.183
1757.00    11.376     9.520   104.573
1757.20    12.477     8.406   103.659
1757.40    13.456     7.539   102.744
1757.60    14.190     6.300   102.134
1757.80    13.823    12.616   101.220
1758.00    13.578    19.180   100.915
1758.20    14.312    21.656   101.220
1758.40    15.168    20.789   102.134
1758.60    13.333    19.675   102.744
1758.80    13.089    18.065   103.659
1759.00    13.700    16.455   104.573
1759.20    14.801    14.845   105.488
1759.40    15.902    13.235   106.402
1759.60    16.636    11.502   107.622
1759.80    17.125     9.768   108.232
1760.00    17.615     8.158   107.927
1760.20    16.391     6.796   106.707
1760.40    14.924     8.158   105.793
1760.60    13.456     9.768   104.878
1760.80    12.110    11.006   104.268
1761.00    11.988    11.378   104.268
1761.20    12.110    12.368   104.573
1761.40    12.110    12.988   104.878
1761.60    12.110    12.864   105.488
1761.80    11.743    12.245   106.098
1762.00    11.498    11.502   104.573
1762.20    11.254    10.759   103.049
1762.40    10.887    10.015   101.220
