~Version information block
VERS.                            2.0:CWLS Log ASCII Standard-VERSION 2.0
WRAP.                            NO:One line per depth step
~Well information block
# MNEM.UNIT         DATA                       DESCRIPTION OF MNEMONIC
#---------      -------------------           -------------------------------
STRT.M                           370.00: Начальная глубина
STOP.M                          2251.00: Конечная  глубина
STEP.M                             0.20: Шаг квантования по глубине
NULL.                           -999.25: Отсутствие данных
WELL.                                11: Скважина
FLD .                              KURK: Площадь
LOC .                                  : Место
STAT.                                  : Область
CTRY.                            RUSSIA: Страна
COMP.                                  : Заказчик
SRVC.                                  : Исполнитель
DATE.                        18.12.1984: Дата каротажа
METD.                              BKZ5: Метод
SCAL.                               500: Масштаб по глубине
UWI. M38076KURK11S1:
#
~Parameter information block
#MNEM   .UNIT           VALUE                 DESCRIPTION OF MNEMONIC
#------------------    --------               ---------------------------
CATEGORY.                               -999.25:"Категория скважины"
DATED   .DD.MM.YYYY                     -999.25:"Дата разбуривания интервала (ДД.ММ.ГГГГ)"
FACE    .m                                 2251:"Глубина пробуренного забоя скважины(м)"
CBDA    .m                              -999.25:"Глубина текущего забоя скважины (м)"
ALT     .m                              -999.25:"Альтитуда стола ротора(m)"
SCD     .mm                               215.9:"Номинальный диаметр скважины (мм)"
CCD     .mm                             -999.25:"Диаметр кондуктора (мм)"
CD      .mm                             -999.25:"Диаметр колонны (мм)"
DCC     .m                              -999.25:"Глубина спуска кондуктора (м)"
CDP     .m                              -999.25:"Глубина спуска колонны (м)"
DFT     .                               -999.25:"Тип промывочной жидкости в скважине"
DFD     .g/s3                               1.2:"Плотность промывочной жидкости (г/см3)"
DFR     .Omm                            -999.25:"Сопротивление бурового раствора (Омм)"
RMF     .Omm                            -999.25:"Сопротивление фильтра промывочной жидкости (Омм)"
DFL     .sm3/30min                            9:"Водоотдача бурового раствора (см3/30мин)"
DFSLT   .g/l                            -999.25:"Минерализация промывачной жидкости (г/л)"
DFV     .s                                   35:"Вязкость бурового раствора (сек)"
RAUGK   .imp/min                        -999.25:"Коэффициент перехода ГК (имп/мкР/ч)"
RAU     .imp/min                        -999.25:"Коэффициент перехода НГК (усл.ед/имп/мин)"
RAUB    .imp/min                        -999.25:"Коэффициент перехода для большого зонда ННК (усл.ед/имп/мин)"
RAUS    .imp/min                        -999.25:"Коэффициент перехода для малого зонда ННК (усл.ед/имп/мин)"
TDLB    .imp/min                        -999.25:"Счет в эталонировочном устройстве ИННК - большой зонд (имп/мин)"
TDLS    .imp/min                        -999.25:"Счет в эталонировочном устройстве ИННК - малый зонд (имп/мин)"
TPNLGK  .s                              -999.25:"Постоянная времени ГК (сек)"
TPNLNK  .s                              -999.25:"Постоянная времени ННК (сек)"
TPNLNGK .s                              -999.25:"Постоянная времени НГК (сек)"
TPNLGGK .s                              -999.25:"Постоянная времени ГГК (сек)"
TPNLINNK.s                              -999.25:"Постоянная времени ИННК (сек)"
KNGK    .s                              -999.25:"КNGK"
SPEED   .m/h                            -999.25:"Скорость записи (м/ч)"
#
~Curve information block
DEPT.M                                  :
N11M05A.Omm                            : потенциал-зонд N11.0M0.5A,Ом.м
A2M05N.Omm                             : Подошвенный градиент-зонд A2.0M0.5N,Омм
PS.mV                                  : Потенциал самопроизвольной поляризации,мВ
~Other information block
#MNEM.UNIT                VALUE                 DESCRIPTION OF MNEMONIC
#-----------------      ------------          -------------------------------------------
TYPE.                                       Raw:"Тип данных"
TYPE1.                                      ost:"Тип записи"
KOG.                                    -999.25:"Тип кожуха прибора"
SRVC5.                                  -999.25:"Фамилия оператора каротажной партии"
NAME.                                  Bakanova:"Фамилия подготовившего las файл"
SRVC2.                                Geoproekt:"Предприятие, подготовившее LAS файл"
~A DEPT.M  N11M05A    A2M05N      PS
# ...
 876.40    22.385    30.325    44.207
 876.60    19.939    25.248    45.427
 876.80    17.615    21.161    46.646
 877.00    15.291    18.437    48.171
 877.20    21.162    13.111    49.390
 877.40    25.443    14.226    50.610
 877.60    25.076    15.341    52.134
 877.80    24.587    16.455    53.354
 878.00    24.220    16.084    54.573
 878.20    23.853    13.854    54.268
 878.40    25.443    12.492    52.439
 878.60    30.581    12.740    50.915
 878.80    34.618    14.598    49.390
 879.00    31.927    17.693    47.561
 879.20    29.725    21.037    46.037
 879.40    27.523    24.505    44.512
 879.60    25.321    27.601    42.683
 879.80    23.119    27.848    41.159
 880.00    20.917    27.105    39.939
 880.20    20.306    26.115    41.159
 880.40    21.284    23.885    42.073
 880.60    22.263    21.780    42.988
 880.80    23.242    20.789    43.902
 881.00    24.220    22.028    45.122
 881.20    23.976    22.647    46.037
 881.40    22.385    20.542    46.951
 881.60    20.673    18.313    48.780
 881.80    19.083    15.588    50.915
 882.00    17.492    12.864    53.354
 882.20    15.780    10.882    55.488
 882.40    14.067     9.520    57.927
 882.60    12.722     8.777    60.061
 882.80    13.700     8.406    61.280
 883.00    14.557     8.529    60.061
 883.20    15.413     9.644    58.537
 883.40    16.269    10.511    57.317
 883.60    17.125    10.635    56.098
 883.80    17.492     9.768    55.183
 884.00    17.370     9.149    55.183
 884.20    17.248     8.777    54.878
 884.40    17.003     9.396    54.878
 884.60    17.492    10.263    53.963
 884.80    18.593    10.759    52.744
 885.00    19.572    11.130    51.829
 885.20    19.817    10.635    50.610
 885.40    19.327    10.015    49.390
 885.60    20.061     9.520    48.171
 885.80    21.651     9.272    48.780
 886.00    22.997    10.015    51.829
 886.20    24.343    17.074    55.488
 886.40    25.933    21.780    54.268
 886.60    27.278    25.867    52.439
 886.80    28.746    29.458    50.915
 887.00    30.214    31.935    49.085
 887.20    28.502    32.678    47.561
 887.40    26.667    29.458    46.037
 887.60    24.709    24.505    44.512
 887.80    22.875    19.799    42.988
 888.00    21.284    18.313    41.159
 888.20    28.379    20.789    39.634
 888.40    34.740    24.257    38.110
 888.60    39.021    26.858    36.585
 888.80    37.554    25.867    39.634
 889.00    36.208    24.381    42.378
 889.20    34.740    23.142    45.122
 889.40    34.740    22.399    48.171
 889.60    35.474    23.019    50.915
 889.80    36.330    24.752    53.354
 890.00    37.187    32.926    56.402
 890.20    37.798    37.012    59.146
 890.40    29.725    36.022    61.890
 890.60    25.443    34.536    64.634
 890.80    24.954    32.307    66.768
 891.00    25.933    30.201    62.805
 891.20    26.789    29.582    59.146
 891.40    27.645    30.325    55.488
 891.60    27.034    31.068    51.524
 891.80    26.544    30.820    52.134
 892.00    25.933    28.839    53.049
 892.20    25.443    26.115    53.659
 892.40    33.517    24.381    53.049
 892.60    40.489    26.115    51.524
 892.80    39.021    28.715    50.000
 893.00    37.431    31.687    48.780
 893.20    35.719    31.935    46.951
 893.40    34.128    30.820    45.427
 893.60    33.884    30.077    43.902
 893.80    34.618    29.582    42.378
 894.00    35.107    30.077    42.073
 894.20    35.719    34.288    42.988
 894.40    36.330    38.870    43.598
 894.60    37.064    38.498    41.463
 894.80    37.554    38.622    38.720
 895.00    33.517    36.641    38.720
 895.20    29.847    32.554    38.720
 895.40    26.300    28.467    38.720
 895.60    22.875    26.238    37.195
 895.80    23.731    26.858    35.366
 896.00    24.709    29.458    33.841
 896.20    25.443    30.697    32.317
 896.40    26.300    32.430    33.232
 896.60    25.443    14.598    34.451
 896.80    22.385    12.452    35.366
 897.00    19.327    10.307    35.976
 897.20    16.391     8.161    36.890
 897.40    13.333     6.015    37.805
 897.60    10.398     5.347    38.720
 897.80     9.174     4.876    38.415
 898.00     9.052     4.356    36.280
 898.20     8.930     3.836    34.146
 898.40     8.807     3.341    31.707
 898.60     8.440     2.820    31.707
 898.80     8.073     2.870    32.622
 899.00     8.196     3.192    33.537
 899.20     9.786     3.514    34.756
 899.40    12.110     3.836    34.451
 899.60    16.514     4.158    33.537
 899.80    21.040     4.480    33.232
 900.00    25.443     5.050    32.317
 900.20    26.422     5.793    31.707
 900.40    25.076     6.684    32.317
 900.60    23.731     7.749    33.232
 900.80    22.385     7.947    34.146
 901.00    21.040     8.022    34.756
 901.20    19.694     7.328    35.061
 901.40    18.349     6.313    33.537
 901.60    17.003     5.297    32.012
 901.80    15.657     5.272    30.793
 902.00    14.312     5.693    32.317
 902.20    12.966     6.115    33.841
 902.40    11.621     6.536    35.061
 902.60    10.275     6.486    36.280
 902.80    12.110     6.238    33.537
 903.00    15.168     6.015    32.622
 903.20    18.226     5.768    33.537
 903.40    20.428     5.495    34.451
 903.60    20.061     6.015    35.366
 903.80    19.694     6.635    33.841
 904.00    22.141     7.254    32.622
 904.20    25.688     8.983    32.317
 904.40    29.235    11.749    33.232
 904.60    32.783    13.978    33.537
 904.80    36.942    15.836    34.451
 905.00    38.491    17.693    33.537
 905.20    40.041    19.551    32.317
 905.40    41.590    21.285    33.232
 905.60    45.260    23.142    33.841
 905.80    45.872    25.124    34.146
 906.00    42.202    26.981    33.232
 906.20    38.532    28.839    32.012
 906.40    34.862    27.477    32.622
 906.60    31.193    26.238    33.537
 906.80    34.251    31.068    34.146
 907.00    36.697    30.573    34.756
 907.20    39.755    29.954    35.061
 907.40    42.202    29.211    34.451
 907.60    44.648    28.715    33.537
 907.80    47.706    30.077    32.622
 908.00    47.095    31.440    31.707
 908.20    45.260    32.678    31.707
 908.40    42.202    34.040    31.707
 908.60    39.755    35.279    31.707
 908.80    37.309    37.384    32.012
 909.00    34.536    39.118    32.012
 909.20    30.581    39.613    32.622
 909.40    28.135    39.489    33.841
 909.60    22.997    22.152    35.061
 909.80    21.896    20.666    35.976
 910.00    20.673    19.180    37.195
 910.20    19.694    17.817    37.195
 910.40    22.018    16.950    36.280
 910.60    30.092    16.084    35.976
 910.80    33.884    15.341    35.671
 911.00    37.398    18.437    36.280
 911.20    40.912    21.161    37.500
 911.40    44.426    20.666    38.415
 911.60    47.940    20.294    39.634
 911.80    51.454    19.923    39.634
 912.00    55.046    31.563    39.634
 912.20    56.881    41.133    39.939
 912.40    56.881    46.156    39.634
 912.60    50.765    51.178    38.415
 912.80    45.260    56.201    37.195
 913.00    46.483    61.223    37.805
 913.20    48.318    68.034    38.720
 913.40    50.153    69.272    39.329
 913.60    51.376    68.034    39.024
 913.80    53.823    66.796    38.415
 914.00    58.104    64.938    37.805
 914.20    59.327    63.700    36.890
 914.40    56.881    71.130    35.976
 914.60    55.657    77.322    35.366
 914.80    53.823    83.514    36.280
 915.00    51.376    89.706    37.500
 915.20    48.318    87.229    38.415
 915.40    45.260    81.037    38.110
 915.60    42.813    75.464    37.500
 915.80    40.367    69.272    36.585
 916.00    37.309    63.700    35.976
 916.20    37.920    57.508    35.366
 916.40    38.532    51.935    35.366
 916.60    39.144    45.743    35.366
 916.80    39.755    39.551    35.366
 917.00    40.367    37.694    35.976
 917.20    40.367    41.409    35.976
 917.40    40.367    45.124    36.585
 917.60    39.755    45.743    36.585
 917.80    39.144    41.409    36.585
 918.00    42.813    36.455    36.280
 918.20    44.648    42.028    36.280
 918.40    41.264    48.839    35.976
