~Version information block
VERS.                            2.0:CWLS Log ASCII Standard-VERSION 2.0
WRAP.                            NO:One line per depth step
~Well information block
# MNEM.UNIT         DATA                       DESCRIPTION OF MNEMONIC
#---------      -------------------           -------------------------------
STRT.M                           370.00: Начальная глубина
STOP.M                          2251.00: Конечная  глубина
STEP.M                             0.20: Шаг квантования по глубине
NULL.                           -999.25: Отсутствие данных
WELL.                                11: Скважина
FLD .                              KURK: Площадь
LOC .                                  : Место
STAT.                                  : Область
CTRY.                            RUSSIA: Страна
COMP.                                  : Заказчик
SRVC.                                  : Исполнитель
DATE.                        18.12.1984: Дата каротажа
METD.                              BKZ5: Метод
SCAL.                               500: Масштаб по глубине
UWI. M38076KURK11S1:
#
~Parameter information block
#MNEM   .UNIT           VALUE                 DESCRIPTION OF MNEMONIC
#------------------    --------               ---------------------------
CATEGORY.                               -999.25:"Категория скважины"
DATED   .DD.MM.YYYY                     -999.25:"Дата разбуривания интервала (ДД.ММ.ГГГГ)"
FACE    .m                                 2251:"Глубина пробуренного забоя скважины(м)"
CBDA    .m                              -999.25:"Глубина текущего забоя скважины (м)"
ALT     .m                              -999.25:"Альтитуда стола ротора(m)"
SCD     .mm                               215.9:"Номинальный диаметр скважины (мм)"
CCD     .mm                             -999.25:"Диаметр кондуктора (мм)"
CD      .mm                             -999.25:"Диаметр колонны (мм)"
DCC     .m                              -999.25:"Глубина спуска кондуктора (м)"
CDP     .m                              -999.25:"Глубина спуска колонны (м)"
DFT     .                               -999.25:"Тип промывочной жидкости в скважине"
DFD     .g/s3                               1.2:"Плотность промывочной жидкости (г/см3)"
DFR     .Omm                            -999.25:"Сопротивление бурового раствора (Омм)"
RMF     .Omm                            -999.25:"Сопротивление фильтра промывочной жидкости (Омм)"
DFL     .sm3/30min                            9:"Водоотдача бурового раствора (см3/30мин)"
DFSLT   .g/l                            -999.25:"Минерализация промывачной жидкости (г/л)"
DFV     .s                                   35:"Вязкость бурового раствора (сек)"
RAUGK   .imp/min                        -999.25:"Коэффициент перехода ГК (имп/мкР/ч)"
RAU     .imp/min                        -999.25:"Коэффициент перехода НГК (усл.ед/имп/мин)"
RAUB    .imp/min                        -999.25:"Коэффициент перехода для большого зонда ННК (усл.ед/имп/мин)"
RAUS    .imp/min                        -999.25:"Коэффициент перехода для малого зонда ННК (усл.ед/имп/мин)"
TDLB    .imp/min                        -999.25:"Счет в эталонировочном устройстве ИННК - большой зонд (имп/мин)"
TDLS    .imp/min                        -999.25:"Счет в эталонировочном устройстве ИННК - малый зонд (имп/мин)"
TPNLGK  .s                              -999.25:"Постоянная времени ГК (сек)"
TPNLNK  .s                              -999.25:"Постоянная времени ННК (сек)"
TPNLNGK .s                              -999.25:"Постоянная времени НГК (сек)"
TPNLGGK .s                              -999.25:"Постоянная времени ГГК (сек)"
TPNLINNK.s                              -999.25:"Постоянная времени ИННК (сек)"
KNGK    .s                              -999.25:"КNGK"
SPEED   .m/h                            -999.25:"Скорость записи (м/ч)"
#
~Curve information block
DEPT.M                                  :
N11M05A.Omm                            : потенциал-зонд N11.0M0.5A,Ом.м
A2M05N.Omm                             : Подошвенный градиент-зонд A2.0M0.5N,Омм
PS.mV                                  : Потенциал самопроизвольной поляризации,мВ
~Other information block
#MNEM.UNIT                VALUE                 DESCRIPTION OF MNEMONIC
#-----------------      ------------          -------------------------------------------
TYPE.                                       Raw:"Тип данных"
TYPE1.                                      ost:"Тип записи"
KOG.                                    -999.25:"Тип кожуха прибора"
SRVC5.                                  -999.25:"Фамилия оператора каротажной партии"
NAME.                                  Bakanova:"Фамилия подготовившего las файл"
SRVC2.                                Geoproekt:"Предприятие, подготовившее LAS файл"
~A DEPT.M  N11M05A    A2M05N      PS
# ...
1340.60    38.410    55.650    58.841
1340.80    39.878    52.554    60.366
1341.00    40.245    48.839    61.280
1341.20    39.878    47.601    61.890
1341.40    38.287    50.077    63.415
1341.60    37.187    51.935    66.159
1341.80    36.086    55.031    69.817
1342.00    34.985    51.316    74.085
1342.20    33.884    43.885    78.049
1342.40    32.783    42.647    82.012
1342.60    31.682    44.505    85.366
1342.80    30.581    46.362    86.890
1343.00    29.602    48.220    88.110
1343.20    30.826    49.458    83.841
1343.40    31.927    48.839    82.927
1343.60    32.905    50.697    84.146
1343.80    34.006    52.554    87.805
1344.00    34.985    51.316    89.024
1344.20    36.208    44.505    81.098
1344.40    37.187    37.694    77.439
1344.60    37.187    40.170    70.427
1344.80    34.985    42.028    69.207
1345.00    32.661    44.505    71.951
1345.20    30.459    46.981    74.390
1345.40    28.257    45.416    77.744
1345.60    25.810    43.850    77.744
1345.80    26.177    42.284    74.695
1346.00    26.544    40.719    71.037
1346.20    26.789    39.153    66.159
1346.40    27.156    37.587    60.671
1346.60    27.401    36.022    54.878
1346.80    27.768    35.402    50.610
1347.00    25.933    34.659    47.256
1347.20    24.954    34.040    44.512
1347.40    24.465    33.421    42.073
1347.60    23.976    30.325    39.939
1347.80    26.544    26.734    37.500
1348.00    29.725    28.344    35.976
1348.20    32.905    29.954    34.451
1348.40    35.963    31.563    34.146
1348.60    38.899    33.050    34.451
1348.80    37.798    34.659    35.366
1349.00    36.575    36.022    36.890
1349.20    35.352    32.554    39.329
1349.40    34.373    28.839    41.768
1349.60    33.150    30.573    43.293
1349.80    32.049    32.926    43.902
1350.00    31.927    35.155    44.207
1350.20    34.495    37.384    45.122
1350.40    36.575    41.976    47.866
1350.60    49.297    49.923    52.134
1350.80    59.939    57.869    57.012
1351.00    59.939    58.127    64.024
1351.20    56.125    62.461    69.512
1351.40    52.166    67.415    73.171
1351.60    48.207    71.749    75.915
1351.80    44.248    76.703    73.780
1352.00    40.289    75.464    71.341
1352.20    36.330    66.796    68.293
1352.40    33.517    59.853    65.244
1352.60    31.437    53.398    62.500
1352.80    29.358    46.943    59.756
1353.00    27.278    40.488    57.317
1353.20    25.199    35.279    54.878
1353.40    22.752    32.926    52.134
1353.60    22.997    30.697    50.000
1353.80    23.364    28.344    47.866
1354.00    23.609    26.115    45.732
1354.20    22.997    26.734    43.902
1354.40    22.630    27.353    41.768
1354.60    22.141    27.972    39.329
1354.80    21.774    28.467    37.500
1355.00    21.284    21.904    35.671
1355.20    28.624    22.771    33.537
1355.40    28.135    23.762    32.317
1355.60    27.523    24.628    30.488
1355.80    26.911    25.619    28.963
1356.00    26.300    26.610    27.134
1356.20    25.566    25.743    25.610
1356.40    25.076    24.752    24.390
1356.60    25.443    23.762    23.171
1356.80    26.544    22.771    21.646
1357.00    30.581    24.257    20.427
1357.20    34.495    27.477    19.207
1357.40    40.265    30.697    17.988
1357.60    47.156    33.793    17.073
1357.80    54.047    40.170    16.159
1358.00    55.657    49.458    15.549
1358.20    53.823    58.746    15.549
1358.40    52.599    68.034    15.244
1358.60    50.765    74.845    15.244
1358.80    46.745    79.799    15.549
1359.00    42.726    78.560    16.159
1359.20    38.707    71.749    16.463
1359.40    34.373    62.043    17.073
1359.60    31.927    52.337    18.293
1359.80    29.480    42.632    19.512
1360.00    27.156    32.926    21.341
1360.20    24.709    24.505    23.171
1360.40    22.263    20.170    25.000
1360.60    20.673    18.808    27.134
1360.80    19.083    17.570    30.793
1361.00    17.370    16.207    34.756
1361.20    15.780    15.217    63.720
1361.40    14.190    16.703    64.329
1361.60    12.232    18.065    64.634
1361.80    15.535    19.427    65.244
1362.00    19.450    20.418    66.463
1362.20    20.673    15.960    71.037
1362.40    20.183    14.102    73.780
1362.60    19.817    14.474    75.610
1362.80    19.327    14.969    75.305
1363.00    18.838    15.341    73.476
1363.20    18.471    14.969    70.427
1363.40    17.982    14.226    66.768
1363.60    17.615    13.607    62.500
1363.80    20.306    12.740    58.537
1364.00    22.997    11.873    54.878
1364.20    25.566    10.882    50.915
1364.40    28.135    12.492    47.256
1364.60    30.703    15.341    43.293
1364.80    33.272    19.303    39.634
1365.00    35.841    23.142    35.671
1365.20    36.575    26.981    32.012
1365.40    35.596    29.768    28.049
1365.60    34.495    29.892    25.915
1365.80    33.272    30.015    27.744
1366.00    32.294    30.139    30.793
1366.20    31.927    30.263    33.841
1366.40    32.294    33.359    36.890
1366.60    32.661    35.217    36.585
1366.80    32.905    38.313    36.280
1367.00    33.517    40.170    35.976
1367.20    34.128    44.505    35.671
1367.40    32.294    43.266    35.061
1367.60    29.235    42.028    36.280
1367.80    25.933    37.957    37.500
1368.00    22.875    31.053    39.329
1368.20    19.817    26.115    41.768
1368.40    18.838    24.381    46.037
1368.60    18.104    22.771    50.610
1368.80    17.125    21.037    55.488
1369.00    16.514    27.229    60.366
1369.20    19.083    30.201    65.854
1369.40    21.162    29.334    71.341
1369.60    23.364    28.467    76.829
1369.80    26.300    27.601    81.098
1370.00    29.235    28.220    85.671
1370.20    32.538    31.935    90.549
1370.40    31.437    35.898    94.207
1370.60    30.336    36.765    96.646
1370.80    29.235    34.536    98.476
1371.00    28.135    32.430    98.171
1371.20    27.156    30.077    97.256
1371.40    25.933    27.972    96.037
1371.60    24.832    25.867    94.817
1371.80    23.731    27.724    92.378
1372.00    22.752    29.334    89.024
1372.20    21.651    31.068    84.756
1372.40    21.407    32.802    81.098
1372.60    22.141    34.412    77.439
1372.80    22.875    36.146    73.780
1373.00    23.609    36.765    70.122
1373.20    24.098    36.146    66.768
1373.40    24.343    36.393    63.720
1373.60    24.587    37.012    62.805
1373.80    23.976    35.774    64.329
1374.00    22.018    33.421    66.159
1374.20    20.183    31.192    68.598
1374.40    18.349    28.963    64.939
1374.60    16.514    26.610    60.061
1374.80    14.557    24.381    55.488
1375.00    14.190    22.028    50.915
1375.20    16.024    19.799    48.780
1375.40    17.737    17.570    45.732
1375.60    19.572    17.322    47.866
1375.80    21.407    18.065    50.915
1376.00    22.997    18.684    50.000
1376.20    20.673    14.845    48.780
1376.40    18.349    13.111    47.561
1376.60    16.147    14.350    50.000
1376.80    13.823    15.588    54.268
1377.00    14.679    14.721    58.537
1377.20    15.657    12.864    60.671
1377.40    16.514    13.978    58.232
1377.60    17.492    15.093    56.402
1377.80    18.349    15.341    54.268
1378.00    19.327    13.607    52.134
1378.20    20.183    11.873    50.000
1378.40    21.162    11.749    47.866
1378.60    22.141    15.836    46.951
1378.80    22.997    14.721    46.951
1379.00    22.997    13.483    46.951
1379.20    22.018    12.245    46.951
1379.40    20.917    11.254    52.744
1379.60    20.061    11.502    60.061
1379.80    19.083    11.625    67.378
1380.00    18.104    11.006    73.780
1380.20    17.125     9.644    76.524
1380.40    16.147     8.529    79.878
1380.60    15.168     7.291    82.927
1380.80    14.067     5.929    86.585
1381.00    13.211     6.796    84.146
1381.20    12.232     7.663    81.098
1381.40    11.254     8.529    83.841
1381.60    10.275     9.520    86.280
1381.80    11.865    10.511    89.024
1382.00    13.333     9.149    91.768
1382.20    14.801     7.786    94.207
1382.40    16.391     8.529    96.951
1382.60    17.859    11.502    99.695
