~Version information block
VERS.                            2.0:CWLS Log ASCII Standard-VERSION 2.0
WRAP.                            NO:One line per depth step
~Well information block
# MNEM.UNIT         DATA                       DESCRIPTION OF MNEMONIC
#---------      -------------------           -------------------------------
STRT.M                           370.00: Начальная глубина
STOP.M                          2251.00: Конечная  глубина
STEP.M                             0.20: Шаг квантования по глубине
NULL.                           -999.25: Отсутствие данных
WELL.                                11: Скважина
FLD .                              KURK: Площадь
LOC .                                  : Место
STAT.                                  : Область
CTRY.                            RUSSIA: Страна
COMP.                                  : Заказчик
SRVC.                                  : Исполнитель
DATE.                        18.12.1984: Дата каротажа
METD.                              BKZ5: Метод
SCAL.                               500: Масштаб по глубине
UWI. M38076KURK11S1:
#
~Parameter information block
#MNEM   .UNIT           VALUE                 DESCRIPTION OF MNEMONIC
#------------------    --------               ---------------------------
CATEGORY.                               -999.25:"Категория скважины"
DATED   .DD.MM.YYYY                     -999.25:"Дата разбуривания интервала (ДД.ММ.ГГГГ)"
FACE    .m                                 2251:"Глубина пробуренного забоя скважины(м)"
CBDA    .m                              -999.25:"Глубина текущего забоя скважины (м)"
ALT     .m                              -999.25:"Альтитуда стола ротора(m)"
SCD     .mm                               215.9:"Номинальный диаметр скважины (мм)"
CCD     .mm                             -999.25:"Диаметр кондуктора (мм)"
CD      .mm                             -999.25:"Диаметр колонны (мм)"
DCC     .m                              -999.25:"Глубина спуска кондуктора (м)"
CDP     .m                              -999.25:"Глубина спуска колонны (м)"
DFT     .                               -999.25:"Тип промывочной жидкости в скважине"
DFD     .g/s3                               1.2:"Плотность промывочной жидкости (г/см3)"
DFR     .Omm                            -999.25:"Сопротивление бурового раствора (Омм)"
RMF     .Omm                            -999.25:"Сопротивление фильтра промывочной жидкости (Омм)"
DFL     .sm3/30min                            9:"Водоотдача бурового раствора (см3/30мин)"
DFSLT   .g/l                            -999.25:"Минерализация промывачной жидкости (г/л)"
DFV     .s                                   35:"Вязкость бурового раствора (сек)"
RAUGK   .imp/min                        -999.25:"Коэффициент перехода ГК (имп/мкР/ч)"
RAU     .imp/min                        -999.25:"Коэффициент перехода НГК (усл.ед/имп/мин)"
RAUB    .imp/min                        -999.25:"Коэффициент перехода для большого зонда ННК (усл.ед/имп/мин)"
RAUS    .imp/min                        -999.25:"Коэффициент перехода для малого зонда ННК (усл.ед/имп/мин)"
TDLB    .imp/min                        -999.25:"Счет в эталонировочном устройстве ИННК - большой зонд (имп/мин)"
TDLS    .imp/min                        -999.25:"Счет в эталонировочном устройстве ИННК - малый зонд (имп/мин)"
TPNLGK  .s                              -999.25:"Постоянная времени ГК (сек)"
TPNLNK  .s                              -999.25:"Постоянная времени ННК (сек)"
TPNLNGK .s                              -999.25:"Постоянная времени НГК (сек)"
TPNLGGK .s                              -999.25:"Постоянная времени ГГК (сек)"
TPNLINNK.s                              -999.25:"Постоянная времени ИННК (сек)"
KNGK    .s                              -999.25:"КNGK"
SPEED   .m/h                            -999.25:"Скорость записи (м/ч)"
#
~Curve information block
DEPT.M                                  :
N11M05A.Omm                            : потенциал-зонд N11.0M0.5A,Ом.м
A2M05N.Omm                             : Подошвенный градиент-зонд A2.0M0.5N,Омм
PS.mV                                  : Потенциал самопроизвольной поляризации,мВ
~Other information block
#MNEM.UNIT                VALUE                 DESCRIPTION OF MNEMONIC
#-----------------      ------------          -------------------------------------------
TYPE.                                       Raw:"Тип данных"
TYPE1.                                      ost:"Тип записи"
KOG.                                    -999.25:"Тип кожуха прибора"
SRVC5.                                  -999.25:"Фамилия оператора каротажной партии"
NAME.                                  Bakanova:"Фамилия подготовившего las файл"
SRVC2.                                Geoproekt:"Предприятие, подготовившее LAS файл"
~A DEPT.M  N11M05A    A2M05N      PS
# ...
1593.80    12.599    10.511    89.329
1594.00    11.498    14.474    87.500
1594.20    10.887    18.437    86.585
1594.40    10.887    19.427    87.500
1594.60    11.009    17.198    88.110
1594.80    11.254    14.969    89.634
1595.00    11.376    12.864    91.463
1595.20    11.376    10.635    93.293
1595.40    11.621     8.777    93.293
1595.60    12.599    11.502    91.768
1595.80    14.067    13.978    91.768
1596.00    16.514    14.598    92.073
1596.20    18.960    14.350    93.293
1596.40    22.752    14.226    94.817
1596.60    25.810    18.560    96.341
1596.80    27.156    24.009    97.866
1597.00    26.667    23.142    99.390
1597.20    25.566    22.152   100.305
1597.40    24.220    24.381   101.220
1597.60    23.119    27.229    97.256
1597.80    22.141    24.381    95.427
1598.00    21.407    21.533    92.683
1598.20    20.550    19.303    90.549
1598.40    19.572    25.248    88.415
1598.60    18.716    30.077    86.585
1598.80    16.758    34.783    84.756
1599.00    15.902    37.508    82.317
1599.20    14.679    39.241    79.878
1599.40    13.700    39.737    81.707
1599.60    13.211    39.985    78.963
1599.80    13.700    19.551    86.890
1600.00    13.945    14.845    88.720
1600.20    14.190    12.492    89.939
1600.40    14.434    10.139    89.939
1600.60    14.312     7.663    88.415
1600.80    13.700     9.396    88.720
1601.00    13.089    11.502    89.329
1601.20    12.477    13.607    90.244
1601.40    11.865    15.712    90.854
1601.60    11.131    15.093    87.805
1601.80    10.642    12.740    85.976
1602.00    10.031     7.526    84.146
1602.20     9.419     6.536    82.317
1602.40     8.930     5.867    80.488
1602.60     8.318     5.198    78.963
1602.80     7.829     4.529    77.439
1603.00     7.462     3.861    76.220
1603.20     6.850     3.737    74.390
1603.40     6.361     4.455    72.866
1603.60     6.116     5.198    71.646
1603.80     6.361     5.892    73.780
1604.00     6.606     6.610    77.439
1604.20     6.850     7.353    81.402
1604.40     6.850     7.724    85.671
1604.60     6.972     7.749    89.329
1604.80     6.972     7.774    92.988
1605.00     6.850     7.155    93.902
1605.20     6.728     6.486    92.073
1605.40     6.606     5.842    90.244
1605.60     6.483     5.198    88.110
1605.80     6.483     4.529    86.280
1606.00     6.606     3.861    85.976
1606.20     6.728     3.687    84.756
1606.40     7.217     3.588    96.037
1606.60     7.706     3.514    99.695
1606.80     8.073     4.752   102.744
1607.00     8.440     6.659   104.878
1607.20     8.807     7.921   105.488
1607.40     9.297     8.660   102.744
1607.60     9.908     9.400   101.524
1607.80    10.765    10.139   100.000
1608.00    11.743    10.015    98.476
1608.20    13.089    10.759    97.561
1608.40    14.679    12.245    97.561
1608.60    18.349    13.607    99.085
1608.80    21.162    15.217   101.220
1609.00    23.976    16.703   102.744
1609.20    26.789    18.065   103.963
1609.40    29.602    19.675   105.183
1609.60    32.416    22.895   106.402
1609.80    31.682    24.009   107.317
1610.00    30.826    23.266   107.927
1610.20    28.624    30.820   108.537
1610.40    27.156    30.222   109.451
1610.60    25.443    29.623   110.366
1610.80    23.853    29.025   111.280
1611.00    22.385    33.359   111.890
1611.20    21.162    34.598   112.500
1611.40    20.061    30.263   112.195
1611.60    19.205    24.752   111.890
1611.80    18.960    22.771   110.671
1612.00    19.817    20.666   108.537
1612.20    21.040    25.619   106.098
1612.40    22.508    31.316   103.049
1612.60    25.199    38.746   100.610
1612.80    26.667    38.870    98.171
1613.00    27.768    39.241    96.037
1613.20    28.379    35.650    93.293
1613.40    29.113    20.418    90.854
1613.60    27.645    21.409    87.805
1613.80    25.810    23.142    90.854
1614.00    23.853    24.876    92.683
1614.20    22.141    26.486    94.512
1614.40    20.428    28.220    96.037
1614.60    18.960    26.486    96.341
1614.80    17.125    22.895    96.341
1615.00    15.413    19.303    96.037
1615.20    13.823    15.712    95.732
1615.40    12.722    12.616    95.732
1615.60    11.865    10.015    96.037
1615.80    11.498     7.043    96.341
1616.00    11.743     9.272    97.561
1616.20    12.232    11.749    98.476
1616.40    13.089    14.102    99.695
1616.60    14.067    16.579   100.915
1616.80    15.046    18.808   102.439
1617.00    16.147    17.198   103.963
1617.20    17.370    15.836   105.793
1617.40    18.471    13.978   107.317
1617.60    19.694    15.960   108.537
1617.80    20.917    18.437   109.451
1618.00    22.018    21.409   109.756
1618.20    23.119    19.675   108.841
1618.40    22.630    18.560   107.317
1618.60    22.018    19.056   105.183
1618.80    21.040    19.427   103.049
1619.00    19.939    12.988   100.915
1619.20    18.716    13.978    99.085
1619.40    17.615    14.721    96.646
1619.60    16.269    15.464    94.512
1619.80    14.924    16.207    93.598
1620.00    13.578    16.950    93.293
1620.20    12.599    14.969    92.683
1620.40    11.498    11.625    92.378
1620.60    10.520    10.882    92.073
1620.80     9.786    10.263    92.073
1621.00     9.174     9.644    92.073
1621.20    10.153     8.529    92.073
1621.40    13.089     7.415    92.988
1621.60    16.636     8.406    94.207
1621.80    18.716    12.368    96.037
1622.00    20.428    15.836    98.171
1622.20    21.774    13.978    99.390
1622.40    21.896    12.368   100.915
1622.60    20.795    10.511    97.561
1622.80    19.327     8.777    96.341
1623.00    17.737     6.796    95.122
1623.20    16.147     8.406    95.122
1623.40    14.924    10.263    95.122
1623.60    13.700    12.121    94.512
1623.80    12.232    13.731    93.598
1624.00    11.009    12.492    92.378
1624.20    10.520    11.378    91.463
1624.40    10.887    10.387    90.244
1624.60    11.131     9.272    89.329
1624.80    11.009     8.158    88.415
1625.00    10.887    11.997    88.110
1625.20    10.887    15.588    87.805
1625.40    11.254    19.180    88.415
1625.60    13.700    16.827    89.329
1625.80    17.003    14.474    90.244
1626.00    19.572    12.245    91.463
1626.20    21.651    13.483    92.378
1626.40    23.242    15.836    92.073
1626.60    24.587    18.437    91.159
1626.80    25.321    20.913    89.634
1627.00    24.587    23.638    88.110
1627.20    23.242    17.941    86.890
1627.40    21.529    18.808    85.061
1627.60    19.939    19.799    83.841
1627.80    18.471    15.217    82.927
1628.00    17.125    15.588    84.146
1628.20    15.413    15.960    85.671
1628.40    13.578    16.455    87.195
1628.60    12.110    16.827    89.329
1628.80    10.642    11.254    90.549
1629.00     9.297     7.043    91.768
1629.20     8.073     9.892    92.378
1629.40     7.339    11.502    90.854
1629.60     6.850    10.015    89.634
1629.80     8.318     8.653    87.500
1630.00    10.642    15.836    84.756
1630.20    11.865    18.313    82.622
1630.40    14.190    15.712    81.707
1630.60    14.434    12.988    81.707
1630.80    13.945    10.898    81.402
1631.00    13.823    10.433    80.183
1631.20    14.190     9.968    78.659
1631.40    15.535     9.503    78.049
1631.60    16.391     9.039    79.268
1631.80    17.492     8.574    80.488
1632.00    13.823     8.109    81.707
1632.20    11.865     7.644    82.317
1632.40    11.131     7.180    82.012
1632.60     9.664     6.115    81.707
1632.80     8.563     5.372    81.098
1633.00     8.807     4.579    80.793
1633.20     8.930     5.099    82.317
1633.40     8.440     5.669    85.976
1633.60     7.829     6.214    89.634
1633.80     8.073     6.759    93.293
1634.00     8.807     7.279    96.341
1634.20     9.052     7.502    98.780
1634.40     8.930     7.724    99.085
1634.60     9.297     7.947    95.427
1634.80    10.765     8.170    93.902
1635.00    11.865     9.149    92.073
1635.20    11.131    10.263    90.244
1635.40    10.153    11.625    89.939
1635.60    11.009    12.864    91.159
1635.80    11.498    11.378    92.988
