~Version information block
VERS.                            2.0:CWLS Log ASCII Standard-VERSION 2.0
WRAP.                            NO:One line per depth step
~Well information block
# MNEM.UNIT         DATA                       DESCRIPTION OF MNEMONIC
#---------      -------------------           -------------------------------
STRT.M                           370.00: Начальная глубина
STOP.M                          2251.00: Конечная  глубина
STEP.M                             0.20: Шаг квантования по глубине
NULL.                           -999.25: Отсутствие данных
WELL.                                11: Скважина
FLD .                              KURK: Площадь
LOC .                                  : Место
STAT.                                  : Область
CTRY.                            RUSSIA: Страна
COMP.                                  : Заказчик
SRVC.                                  : Исполнитель
DATE.                        18.12.1984: Дата каротажа
METD.                              BKZ5: Метод
SCAL.                               500: Масштаб по глубине
UWI. M38076KURK11S1:
#
~Parameter information block
#MNEM   .UNIT           VALUE                 DESCRIPTION OF MNEMONIC
#------------------    --------               ---------------------------
CATEGORY.                               -999.25:"Категория скважины"
DATED   .DD.MM.YYYY                     -999.25:"Дата разбуривания интервала (ДД.ММ.ГГГГ)"
FACE    .m                                 2251:"Глубина пробуренного забоя скважины(м)"
CBDA    .m                              -999.25:"Глубина текущего забоя скважины (м)"
ALT     .m                              -999.25:"Альтитуда стола ротора(m)"
SCD     .mm                               215.9:"Номинальный диаметр скважины (мм)"
CCD     .mm                             -999.25:"Диаметр кондуктора (мм)"
CD      .mm                             -999.25:"Диаметр колонны (мм)"
DCC     .m                              -999.25:"Глубина спуска кондуктора (м)"
CDP     .m                              -999.25:"Глубина спуска колонны (м)"
DFT     .                               -999.25:"Тип промывочной жидкости в скважине"
DFD     .g/s3                               1.2:"Плотность промывочной жидкости (г/см3)"
DFR     .Omm                            -999.25:"Сопротивление бурового раствора (Омм)"
RMF     .Omm                            -999.25:"Сопротивление фильтра промывочной жидкости (Омм)"
DFL     .sm3/30min                            9:"Водоотдача бурового раствора (см3/30мин)"
DFSLT   .g/l                            -999.25:"Минерализация промывачной жидкости (г/л)"
DFV     .s                                   35:"Вязкость бурового раствора (сек)"
RAUGK   .imp/min                        -999.25:"Коэффициент перехода ГК (имп/мкР/ч)"
RAU     .imp/min                        -999.25:"Коэффициент перехода НГК (усл.ед/имп/мин)"
RAUB    .imp/min                        -999.25:"Коэффициент перехода для большого зонда ННК (усл.ед/имп/мин)"
RAUS    .imp/min                        -999.25:"Коэффициент перехода для малого зонда ННК (усл.ед/имп/мин)"
TDLB    .imp/min                        -999.25:"Счет в эталонировочном устройстве ИННК - большой зонд (имп/мин)"
TDLS    .imp/min                        -999.25:"Счет в эталонировочном устройстве ИННК - малый зонд (имп/мин)"
TPNLGK  .s                              -999.25:"Постоянная времени ГК (сек)"
TPNLNK  .s                              -999.25:"Постоянная времени ННК (сек)"
TPNLNGK .s                              -999.25:"Постоянная времени НГК (сек)"
TPNLGGK .s                              -999.25:"Постоянная времени ГГК (сек)"
TPNLINNK.s                              -999.25:"Постоянная времени ИННК (сек)"
KNGK    .s                              -999.25:"КNGK"
SPEED   .m/h                            -999.25:"Скорость записи (м/ч)"
#
~Curve information block
DEPT.M                                  :
N11M05A.Omm                            : потенциал-зонд N11.0M0.5A,Ом.м
A2M05N.Omm                             : Подошвенный градиент-зонд A2.0M0.5N,Омм
PS.mV                                  : Потенциал самопроизвольной поляризации,мВ
~Other information block
#MNEM.UNIT                VALUE                 DESCRIPTION OF MNEMONIC
#-----------------      ------------          -------------------------------------------
TYPE.                                       Raw:"Тип данных"
TYPE1.                                      ost:"Тип записи"
KOG.                                    -999.25:"Тип кожуха прибора"
SRVC5.                                  -999.25:"Фамилия оператора каротажной партии"
NAME.                                  Bakanova:"Фамилия подготовившего las файл"
SRVC2.                                Geoproekt:"Предприятие, подготовившее LAS файл"
~A DEPT.M  N11M05A    A2M05N      PS
 370.00   -999.25   -999.25   -999.25
 370.20   -999.25   -999.25   -999.25
 370.40   -999.25   -999.25   -999.25
 370.60   -999.25   -999.25   -999.25
 370.80   -999.25   -999.25   -999.25
 371.00   -999.25   -999.25   -999.25
 371.20   -999.25   -999.25   -999.25
 371.40   -999.25   -999.25   -999.25
 371.60   -999.25   -999.25   -999.25
 371.80   -999.25   -999.25   -999.25
 372.00   -999.25   -999.25   -999.25
 372.20   -999.25   -999.25   -999.25
 372.40   -999.25    -0.511   -999.25
 372.60   -999.25    -0.511   -999.25
 372.80   -999.25    -0.511   -999.25
 373.00   -999.25    -0.511   -999.25
 373.20   -999.25    -0.511   -999.25
 373.40   -999.25    -0.511   -999.25
 373.60   -999.25    -0.511   -999.25
 373.80   -999.25    -0.511   -999.25
 374.00   -999.25    -0.511   -999.25
 374.20   -999.25    -0.511   -999.25
 374.40   -999.25    -0.511   -999.25
 374.60   -999.25    -0.511   -999.25
 374.80   -999.25    -0.511   -999.25
 375.00     0.612    -0.511   -999.25
 375.20     0.612    -0.511   -999.25
 375.40     0.612    -0.511   -999.25
 375.60     0.489    -0.635   -999.25
 375.80     0.489    -0.635   -999.25
 376.00     0.489    -0.635   -999.25
 376.20     0.489    -0.635   -999.25
 376.40     0.367    -0.635   -999.25
 376.60     0.367    -0.635   -999.25
 376.80     0.367    -0.635   -999.25
 377.00     0.367    -0.635   -999.25
 377.20     0.367    -0.635   -999.25
 377.40     0.612    -0.635   -999.25
 377.60     1.101    -0.635   -999.25
 377.80     2.080    -0.635    92.378
 378.00     3.547    -0.635    89.329
 378.20     5.749    -0.635    86.280
 378.40     8.440    -0.759    83.232
 378.60    11.009    -0.387    80.183
 378.80    13.700     0.108    77.134
 379.00    15.657     0.480    74.695
 379.20    17.370     6.672    73.171
 379.40    18.104     9.644    71.951
 379.60    18.226    12.368    71.341
 379.80    18.349    15.217    71.037
 380.00    18.716    16.950    70.732
 380.20    19.572    18.065    71.037
 380.40    20.673    19.303    71.341
 380.60    22.018    20.542    71.341
 380.80    23.486    21.656    71.646
 381.00    24.709    23.514    71.951
 381.20    25.810    25.372    72.256
 381.40    27.034    27.229    72.561
 381.60    28.257    29.087    72.866
 381.80    29.480    30.944    72.561
 382.00    30.703    32.926    71.951
 382.20    31.927    34.659    71.341
 382.40    33.028    36.517    70.427
 382.60    34.251    37.126    69.817
 382.80    35.229    36.858    68.902
 383.00    36.086    36.589    68.293
 383.20    36.820    39.551    67.073
 383.40    37.187    42.028    66.159
 383.60    36.942    44.505    65.244
 383.80    35.841    46.981    64.024
 384.00    33.517    45.124    63.110
 384.20    30.703    43.885    61.585
 384.40    27.768    42.647    63.415
 384.60    23.976    35.836    65.549
 384.80    23.119    29.025    67.988
 385.00    22.630    29.396    69.817
 385.20    22.875    29.768    72.256
 385.40    24.465    30.139    75.000
 385.60    25.933    30.511    73.780
 385.80    27.645    30.882    72.256
 386.00    29.358    28.963    70.427
 386.20    31.193    24.752    68.902
 386.40    33.150    21.780    67.073
 386.60    35.229    20.666    65.549
 386.80    37.309    19.551    63.720
 387.00    39.511    18.437    61.890
 387.20    27.401    17.322    65.244
 387.40    21.407    18.808    68.902
 387.60    19.817    21.161    72.561
 387.80    18.226    23.638    76.220
 388.00    19.083    25.991    79.573
 388.20    20.061    28.096    80.183
 388.40    20.795    23.638    78.963
 388.60    21.774    19.427    77.439
 388.80    22.630    15.217    75.915
 389.00    23.731    11.873    74.695
 389.20    22.997    11.254    74.085
 389.40    22.141    10.511    75.000
 389.60    21.284     9.892    75.610
 389.80    20.306    12.245    76.524
 390.00    19.572    20.913    77.134
 390.20    22.997    29.706    78.049
 390.40    28.257    33.916    78.659
 390.60    34.754    33.421    78.049
 390.80    41.250    34.288    76.220
 391.00    47.747    36.146    75.000
 391.20    54.244    38.127    73.171
 391.40    60.550    45.175    71.646
 391.60    65.443    58.282    69.817
 391.80    69.725    71.388    70.732
 392.00    66.667    87.229    71.951
 392.20    60.550    96.517    72.866
 392.40    43.119   106.424    74.390
 392.60    25.688   115.712    75.305
 392.80    23.609    86.610    76.524
 393.00    22.385    73.870    77.744
 393.20    21.896    61.130    78.963
 393.40    21.529    48.390    78.963
 393.60    26.177    35.650    77.744
 393.80    31.315    26.610    76.220
 394.00    34.128    20.913    74.390
 394.20    36.453    21.780    73.171
 394.40    38.654    22.771    71.646
 394.60    37.431    23.638    70.122
 394.80    31.560    24.505    68.902
 395.00    28.379    25.000    67.378
 395.20    26.055    24.752    65.549
 395.40    25.933    24.505    64.024
 395.60    26.789    24.133    62.805
 395.80    27.768    25.124    61.280
 396.00    28.746    27.229    59.756
 396.20    28.502    29.334    58.537
 396.40    27.278    31.440    56.707
 396.60    26.055    30.944    55.183
 396.80    24.832    28.467    53.963
 397.00    26.911    25.867    54.573
 397.20    31.437    23.266    57.317
 397.40    32.661    22.647    60.366
 397.60    30.459    25.248    63.415
 397.80    28.257    27.848    66.159
 398.00    26.055    30.449    68.902
 398.20    23.853    33.050    70.427
 398.40    23.976    35.774    71.341
 398.60    25.076    38.251    72.561
 398.80    26.300    30.573    73.476
 399.00    27.523    23.266    75.000
 399.20    28.746    23.638    75.915
 399.40    30.214    24.009    77.134
 399.60    27.768    24.257    77.744
 399.80    24.465    20.913    78.659
 400.00    22.141    16.207    79.268
 400.20    20.428    13.978    79.573
 400.40    20.183    15.464    80.488
 400.60    21.284    17.074    80.793
 400.80    22.263    16.950    75.610
 401.00    23.242    16.703    71.341
 401.20    24.220    16.455    67.073
 401.40    25.321    18.684    64.329
 401.60    26.300    21.780    62.500
 401.80    27.034    25.000    60.366
 402.00    25.810    28.096    58.537
 402.20    24.832    28.467    56.707
 402.40    23.853    27.229    56.707
 402.60    23.853    25.991    58.841
 402.80    26.789    24.876    60.671
 403.00    29.725    23.638    62.500
 403.20    30.581    22.399    64.329
 403.40    28.869    21.161    66.463
 403.60    27.278    20.046    67.073
 403.80    28.257    18.684    64.939
 404.00    30.581    17.570    62.805
 404.20    32.661    18.189    60.671
 404.40    34.862    21.780    58.537
 404.60    37.187    25.372    57.012
 404.80    40.269    28.839    54.878
 405.00    43.352    32.307    52.744
 405.20    46.434    35.279    51.829
 405.40    49.517    37.642    51.829
 405.60    52.599    40.005    51.524
 405.80    55.657    42.368    53.354
 406.00    58.104    44.732    55.183
 406.20    60.550    47.095    56.707
 406.40    58.104    49.458    58.841
 406.60    56.269    54.412    60.366
 406.80    54.434    59.365    62.500
 407.00    52.599    63.700    64.329
 407.20    50.765    68.034    65.854
 407.40    49.541    66.796    67.683
 407.60    49.541    63.080    69.512
 407.80    49.541    58.746    67.683
 408.00    51.376    55.031    65.854
 408.20    53.211    50.697    64.329
 408.40    55.657    46.981    62.500
 408.60    56.881    43.266    60.671
 408.80    53.823    39.551    58.841
 409.00    51.376    36.455    58.537
 409.20    48.930    39.551    59.451
 409.40    45.872    42.647    60.061
 409.60    43.425    45.743    60.976
 409.80    40.367    48.839    62.500
 410.00    42.813    50.697    64.024
 410.20    46.483    53.793    64.939
 410.40    49.541    56.889    66.463
 410.60    53.211    59.985    67.988
 410.80    56.269    62.461    69.512
 411.00    53.823    58.127    71.037
 411.20    50.765    50.077    72.256
 411.40    48.318    41.409    73.476
 411.60    44.648    33.978    75.000
 411.80    41.590    35.217    76.524
 412.00    39.144    40.789    76.524
