~Version information block
VERS.                            2.0:CWLS Log ASCII Standard-VERSION 2.0
WRAP.                            NO:One line per depth step
~Well information block
# MNEM.UNIT         DATA                       DESCRIPTION OF MNEMONIC
#---------      -------------------           -------------------------------
STRT.M                           370.00: Начальная глубина
STOP.M                          2251.00: Конечная  глубина
STEP.M                             0.20: Шаг квантования по глубине
NULL.                           -999.25: Отсутствие данных
WELL.                                11: Скважина
FLD .                              KURK: Площадь
LOC .                                  : Место
STAT.                                  : Область
CTRY.                            RUSSIA: Страна
COMP.                                  : Заказчик
SRVC.                                  : Исполнитель
DATE.                        18.12.1984: Дата каротажа
METD.                              BKZ5: Метод
SCAL.                               500: Масштаб по глубине
UWI. M38076KURK11S1:
#
~Parameter information block
#MNEM   .UNIT           VALUE                 DESCRIPTION OF MNEMONIC
#------------------    --------               ---------------------------
CATEGORY.                               -999.25:"Категория скважины"
DATED   .DD.MM.YYYY                     -999.25:"Дата разбуривания интервала (ДД.ММ.ГГГГ)"
FACE    .m                                 2251:"Глубина пробуренного забоя скважины(м)"
CBDA    .m                              -999.25:"Глубина текущего забоя скважины (м)"
ALT     .m                              -999.25:"Альтитуда стола ротора(m)"
SCD     .mm                               215.9:"Номинальный диаметр скважины (мм)"
CCD     .mm                             -999.25:"Диаметр кондуктора (мм)"
CD      .mm                             -999.25:"Диаметр колонны (мм)"
DCC     .m                              -999.25:"Глубина спуска кондуктора (м)"
CDP     .m                              -999.25:"Глубина спуска колонны (м)"
DFT     .                               -999.25:"Тип промывочной жидкости в скважине"
DFD     .g/s3                               1.2:"Плотность промывочной жидкости (г/см3)"
DFR     .Omm                            -999.25:"Сопротивление бурового раствора (Омм)"
RMF     .Omm                            -999.25:"Сопротивление фильтра промывочной жидкости (Омм)"
DFL     .sm3/30min                            9:"Водоотдача бурового раствора (см3/30мин)"
DFSLT   .g/l                            -999.25:"Минерализация промывачной жидкости (г/л)"
DFV     .s                                   35:"Вязкость бурового раствора (сек)"
RAUGK   .imp/min                        -999.25:"Коэффициент перехода ГК (имп/мкР/ч)"
RAU     .imp/min                        -999.25:"Коэффициент перехода НГК (усл.ед/имп/мин)"
RAUB    .imp/min                        -999.25:"Коэффициент перехода для большого зонда ННК (усл.ед/имп/мин)"
RAUS    .imp/min                        -999.25:"Коэффициент перехода для малого зонда ННК (усл.ед/имп/мин)"
TDLB    .imp/min                        -999.25:"Счет в эталонировочном устройстве ИННК - большой зонд (имп/мин)"
TDLS    .imp/min                        -999.25:"Счет в эталонировочном устройстве ИННК - малый зонд (имп/мин)"
TPNLGK  .s                              -999.25:"Постоянная времени ГК (сек)"
TPNLNK  .s                              -999.25:"Постоянная времени ННК (сек)"
TPNLNGK .s                              -999.25:"Постоянная времени НГК (сек)"
TPNLGGK .s                              -999.25:"Постоянная времени ГГК (сек)"
TPNLINNK.s                              -999.25:"Постоянная времени ИННК (сек)"
KNGK    .s                              -999.25:"КNGK"
SPEED   .m/h                            -999.25:"Скорость записи (м/ч)"
#
~Curve information block
DEPT.M                                  :
N11M05A.Omm                            : потенциал-зонд N11.0M0.5A,Ом.м
A2M05N.Omm                             : Подошвенный градиент-зонд A2.0M0.5N,Омм
PS.mV                                  : Потенциал самопроизвольной поляризации,мВ
~Other information block
#MNEM.UNIT                VALUE                 DESCRIPTION OF MNEMONIC
#-----------------      ------------          -------------------------------------------
TYPE.                                       Raw:"Тип данных"
TYPE1.                                      ost:"Тип записи"
KOG.                                    -999.25:"Тип кожуха прибора"
SRVC5.                                  -999.25:"Фамилия оператора каротажной партии"
NAME.                                  Bakanova:"Фамилия подготовившего las файл"
SRVC2.                                Geoproekt:"Предприятие, подготовившее LAS файл"
~A DEPT.M  N11M05A    A2M05N      PS
# ...
2100.20    30.092    73.607    99.085
2100.40    28.379    66.176    95.732
2100.60    26.667    58.127    93.902
2100.80    24.954    51.331    93.293
2101.00    23.119    44.536    95.732
2101.20    21.529    37.740    98.476
2101.40    19.939    30.944   101.220
2101.60    21.040    28.344   103.659
2101.80    22.141    26.115   105.488
2102.00    23.119    23.885   107.012
2102.20    24.098    21.656   107.927
2102.40    25.199    21.161   108.841
2102.60    26.177    20.913   110.061
2102.80    27.034    21.533   110.366
2103.00    28.012    23.638   110.671
2103.20    29.113    25.743   110.366
2103.40    30.092    31.440   110.366
2103.60    31.070    32.183   109.756
2103.80    32.294    32.926   109.451
2104.00    33.272    33.669   108.841
2104.20    32.416    34.288   108.232
2104.40    31.437    33.681   107.927
2104.60    30.459    31.972   107.622
2104.80    29.480    30.263   107.622
2105.00    28.502    35.836   107.317
2105.20    28.257    40.170   106.707
2105.40    27.890    37.694   106.098
2105.60    27.645    33.978   105.183
2105.80    27.523    30.882   104.573
2106.00    27.156    30.913   104.268
2106.20    27.034    32.214   104.878
2106.40    27.034    33.514   105.488
2106.60    26.911    33.421   107.317
2106.80    26.911    32.430   108.841
2107.00    26.789    31.563   110.061
2107.20    26.300    30.697   110.976
2107.40    25.933    29.830   111.280
2107.60    25.566    28.839   111.280
2107.80    25.076    27.972   110.976
2108.00    24.709    28.220   109.756
2108.20    24.220    28.467   108.537
2108.40    23.853    28.715   107.317
2108.60    23.609    28.963   106.098
2108.80    23.976    29.211   105.793
2109.00    24.220    29.458   105.183
2109.20    24.465    29.706   104.573
2109.40    24.709    28.344   104.268
2109.60    24.954    25.867   103.963
2109.80    24.587    25.372   103.354
2110.00    23.976    26.115   102.439
2110.20    23.242    26.858   101.829
2110.40    22.508    27.477   101.220
2110.60    21.896    27.972   100.610
2110.80    21.774    26.115   100.305
2111.00    22.018    24.628    99.695
2111.20    22.385    24.505    99.390
2111.40    21.774    25.372    99.390
2111.60    21.284    26.238    99.390
2111.80    20.795    25.991    99.695
2112.00    20.183    24.133   100.305
2112.20    20.428    22.152   100.610
2112.40    21.407    20.170   101.220
2112.60    22.263    19.056   101.829
2112.80    23.242    19.056   102.744
2113.00    24.220    18.808   103.659
2113.20    25.076    18.808   104.268
2113.40    25.933    19.799   104.878
2113.60    26.911    21.780   105.488
2113.80    27.768    23.638   106.098
2114.00    28.502    25.495   106.402
2114.20    29.235    27.477   107.012
2114.40    29.969    29.334   107.317
2114.60    30.703    31.440   107.622
2114.80    31.437    33.793   107.927
2115.00    32.171    35.526   107.622
2115.20    33.028    35.774   107.012
2115.40    33.761    35.898   106.402
2115.60    34.495    36.022   105.488
2115.80    35.229    37.564   104.268
2116.00    35.963    39.106   103.049
2116.20    36.697    40.649   102.134
2116.40    37.431    42.191   101.524
2116.60    38.945    43.733   101.220
2116.80    40.749    45.124   100.915
2117.00    42.554    46.362   100.610
2117.20    44.358    46.981   100.610
2117.40    45.872    48.220   100.305
2117.60    46.483    48.839   100.305
2117.80    48.318    50.077    99.695
2118.00    48.930    52.554    99.390
2118.20    50.765    57.508    98.780
2118.40    52.599    63.080    97.866
2118.60    54.434    68.653    97.256
2118.80    56.269    72.988    96.341
2119.00    58.104    77.322    95.122
2119.20    59.939    81.656    93.902
2119.40    62.385    86.610    92.073
2119.60    64.220    92.802    90.244
2119.80    66.055    98.994    87.805
2120.00    67.890   105.186    85.366
2120.20    69.725   112.616    82.317
2120.40    72.171   120.666    79.573
2120.60    74.006   128.096    76.829
2120.80    75.841   135.526    73.171
2121.00    75.229   142.957    69.817
2121.20    72.783   151.006    65.244
2121.40    70.948   158.437    60.366
2121.60    69.113   166.486    56.707
2121.80    67.278   173.297    53.963
2122.00    64.832   181.347    53.049
2122.20    62.997   190.635    53.354
2122.40    54.353   180.108    55.793
2122.60    45.708   167.105    58.841
2122.80    37.064   152.864    62.195
2123.00    34.128   139.861    66.463
2123.20    32.171   116.259    70.732
2123.40    30.092    83.916    74.695
2123.60    28.012    51.574    78.659
2123.80    26.055    33.916    82.012
2124.00    23.976    32.307    83.232
2124.20    22.875    30.697    84.146
2124.40    22.141    29.087    85.366
2124.60    21.162    27.477    85.976
2124.80    20.306    29.582    86.890
2125.00    20.183    31.687    87.500
2125.20    20.917    34.288    88.110
2125.40    21.651    32.678    88.720
2125.60    22.385    30.573    89.024
2125.80    22.997    28.467    89.634
2126.00    23.731    26.362    90.244
2126.20    24.343    26.115    90.854
2126.40    24.954    27.353    90.854
2126.60    25.810    28.591    91.159
2126.80    25.321    29.830    91.463
2127.00    24.832    31.192    91.463
2127.20    24.832    32.430    91.768
2127.40    25.566    33.669    92.073
2127.60    26.422    33.421    92.073
2127.80    27.278    31.935    92.378
2128.00    27.278    30.697    92.683
2128.20    26.911    31.811    92.683
2128.40    26.422    32.678    92.683
2128.60    26.055    33.669    92.683
2128.80    25.933    34.536    92.683
2129.00    26.055    35.526    92.683
2129.20    26.177    36.517    92.683
2129.40    26.422    37.384    92.683
2129.60    26.544    36.269    92.378
2129.80    24.587    33.669    92.073
2130.00    25.076    31.068    92.378
2130.20    25.566    28.467    92.683
2130.40    26.177    26.981    92.683
2130.60    25.688    27.724    92.683
2130.80    25.076    28.344    92.683
2131.00    24.343    29.087    92.378
2131.20    23.609    29.830    92.073
2131.40    22.875    30.573    91.768
2131.60    22.141    31.192    91.463
2131.80    21.407    31.935    91.159
2132.00    20.795    32.802    90.854
2132.20    20.061    31.811    90.854
2132.40    19.327    30.573    90.854
2132.60    18.593    29.334    90.854
2132.80    17.859    28.096    90.854
2133.00    17.248    26.858    91.159
2133.20    17.370    25.619    91.463
2133.40    18.104    24.381    91.463
2133.60    18.838    34.412    91.768
2133.80    19.572    32.678    92.073
2134.00    19.939    30.820    92.378
2134.20    20.061    29.087    92.683
2134.40    21.284    27.229    92.683
2134.60    22.630    25.372    92.683
2134.80    23.976    23.390    92.073
2135.00    25.321    27.477    91.463
2135.20    25.688    31.811    91.159
2135.40    25.566    36.889    90.244
2135.60    26.055    35.774    89.634
2135.80    25.810    34.412    88.720
2136.00    24.954    33.173    88.110
2136.20    24.220    31.935    87.805
2136.40    23.242    30.820    87.500
2136.60    22.508    29.458    87.500
2136.80    21.651    28.220    87.500
2137.00    20.795    26.981    87.500
2137.20    20.061    25.619    87.500
2137.40    19.205    24.381    87.805
2137.60    18.349    23.266    88.110
2137.80    17.615    21.904    88.415
2138.00    16.636    20.666    88.720
2138.20    17.859    20.542    89.024
2138.40    20.061    21.533    89.329
2138.60    22.385    22.523    89.634
2138.80    24.587    23.390    89.634
2139.00    26.911    24.381    90.549
2139.20    29.113    29.087    91.159
2139.40    31.437    35.279    91.768
2139.60    33.639    37.604    92.073
2139.80    36.141    39.929    92.378
2140.00    39.922    42.255    92.683
2140.20    43.703    44.580    92.683
2140.40    47.484    50.697    92.378
2140.60    51.265    55.650    91.768
2140.80    55.046    60.604    90.854
2141.00    59.939    65.557    89.634
2141.20    61.774    70.511    88.110
2141.40    58.716    75.464    86.585
2141.60    56.269    80.418    85.366
2141.80    53.211    76.703    84.146
2142.00    48.685    63.080    83.537
2142.20    40.856    49.458    83.232
