~Version information block
VERS.                            2.0:CWLS Log ASCII Standard-VERSION 2.0
WRAP.                            NO:One line per depth step
~Well information block
# MNEM.UNIT         DATA                       DESCRIPTION OF MNEMONIC
#---------      -------------------           -------------------------------
STRT.M                           370.00: Начальная глубина
STOP.M                          2251.00: Конечная  глубина
STEP.M                             0.20: Шаг квантования по глубине
NULL.                           -999.25: Отсутствие данных
WELL.                                11: Скважина
FLD .                              KURK: Площадь
LOC .                                  : Место
STAT.                                  : Область
CTRY.                            RUSSIA: Страна
COMP.                                  : Заказчик
SRVC.                                  : Исполнитель
DATE.                        18.12.1984: Дата каротажа
METD.                              BKZ5: Метод
SCAL.                               500: Масштаб по глубине
UWI. M38076KURK11S1:
#
~Parameter information block
#MNEM   .UNIT           VALUE                 DESCRIPTION OF MNEMONIC
#------------------    --------               ---------------------------
CATEGORY.                               -999.25:"Категория скважины"
DATED   .DD.MM.YYYY                     -999.25:"Дата разбуривания интервала (ДД.ММ.ГГГГ)"
FACE    .m                                 2251:"Глубина пробуренного забоя скважины(м)"
CBDA    .m                              -999.25:"Глубина текущего забоя скважины (м)"
ALT     .m                              -999.25:"Альтитуда стола ротора(m)"
SCD     .mm                               215.9:"Номинальный диаметр скважины (мм)"
CCD     .mm                             -999.25:"Диаметр кондуктора (мм)"
CD      .mm                             -999.25:"Диаметр колонны (мм)"
DCC     .m                              -999.25:"Глубина спуска кондуктора (м)"
CDP     .m                              -999.25:"Глубина спуска колонны (м)"
DFT     .                               -999.25:"Тип промывочной жидкости в скважине"
DFD     .g/s3                               1.2:"Плотность промывочной жидкости (г/см3)"
DFR     .Omm                            -999.25:"Сопротивление бурового раствора (Омм)"
RMF     .Omm                            -999.25:"Сопротивление фильтра промывочной жидкости (Омм)"
DFL     .sm3/30min                            9:"Водоотдача бурового раствора (см3/30мин)"
DFSLT   .g/l                            -999.25:"Минерализация промывачной жидкости (г/л)"
DFV     .s                                   35:"Вязкость бурового раствора (сек)"
RAUGK   .imp/min                        -999.25:"Коэффициент перехода ГК (имп/мкР/ч)"
RAU     .imp/min                        -999.25:"Коэффициент перехода НГК (усл.ед/имп/мин)"
RAUB    .imp/min                        -999.25:"Коэффициент перехода для большого зонда ННК (усл.ед/имп/мин)"
RAUS    .imp/min                        -999.25:"Коэффициент перехода для малого зонда ННК (усл.ед/имп/мин)"
TDLB    .imp/min                        -999.25:"Счет в эталонировочном устройстве ИННК - большой зонд (имп/мин)"
TDLS    .imp/min                        -999.25:"Счет в эталонировочном устройстве ИННК - малый зонд (имп/мин)"
TPNLGK  .s                              -999.25:"Постоянная времени ГК (сек)"
TPNLNK  .s                              -999.25:"Постоянная времени ННК (сек)"
TPNLNGK .s                              -999.25:"Постоянная времени НГК (сек)"
TPNLGGK .s                              -999.25:"Постоянная времени ГГК (сек)"
TPNLINNK.s                              -999.25:"Постоянная времени ИННК (сек)"
KNGK    .s                              -999.25:"КNGK"
SPEED   .m/h                            -999.25:"Скорость записи (м/ч)"
#
~Curve information block
DEPT.M                                  :
N11M05A.Omm                            : потенциал-зонд N11.0M0.5A,Ом.м
A2M05N.Omm                             : Подошвенный градиент-зонд A2.0M0.5N,Омм
PS.mV                                  : Потенциал самопроизвольной поляризации,мВ
~Other information block
#MNEM.UNIT                VALUE                 DESCRIPTION OF MNEMONIC
#-----------------      ------------          -------------------------------------------
TYPE.                                       Raw:"Тип данных"
TYPE1.                                      ost:"Тип записи"
KOG.                                    -999.25:"Тип кожуха прибора"
SRVC5.                                  -999.25:"Фамилия оператора каротажной партии"
NAME.                                  Bakanova:"Фамилия подготовившего las файл"
SRVC2.                                Geoproekt:"Предприятие, подготовившее LAS файл"
~A DEPT.M  N11M05A    A2M05N      PS
# ...
1129.60     2.275     1.037    81.402
1129.80     2.202     1.062    82.622
1130.00     2.398     1.161    83.841
1130.20     2.667     1.285    79.878
1130.40     2.887     1.235    72.256
1130.60     3.131     1.186    64.634
1130.80     3.376     1.136    49.085
1131.00     3.376     1.087    40.854
1131.20     3.229     1.037    39.329
1131.40     3.083     0.963    37.195
1131.60     3.376     0.889    36.890
1131.80     3.645     0.839    37.500
1132.00     3.890     0.789    37.195
1132.20     4.110     0.740    35.976
1132.40     3.621     0.690    33.232
1132.60     3.254     0.789    30.183
1132.80     2.838     0.864    27.134
1133.00     2.618     0.938    24.695
1133.20     2.495     1.037    43.293
1133.40     2.422     1.062    52.744
1133.60     2.300     1.012    61.890
1133.80     2.495     0.938    71.341
1134.00     2.691     0.889    80.488
1134.20     2.911     0.814    84.451
1134.40     3.131     0.765    87.805
1134.60     3.229     0.913    90.549
1134.80     3.278     1.161    88.110
1135.00     3.376     1.384    86.585
1135.20     3.547     1.656    84.756
1135.40     3.719     1.904    89.024
1135.60     3.841     2.127    92.683
1135.80     3.743     2.424    92.073
1136.00     3.670     2.350    91.159
1136.20     3.596     2.276    90.549
1136.40     3.792     2.201    89.939
1136.60     4.428     2.127    90.854
1136.80     4.477     2.300    91.159
1137.00     4.477     2.820    92.073
1137.20     4.673     3.365    90.244
1137.40     4.844     3.935    84.146
1137.60     5.015     4.455    78.354
1137.80     5.187     5.000    72.256
1138.00     5.382     5.570    65.854
1138.20     5.554     6.189    60.061
1138.40     5.725     6.783    53.659
1138.60     5.896     7.402    42.988
1138.80     5.676     7.700    32.622
1139.00     4.771     7.749    21.646
1139.20     3.914     3.142    17.988
1139.40     3.009     2.573    15.244
1139.60     2.642     2.127    11.890
1139.80     2.398     1.904    12.195
1140.00     2.177     1.384    12.805
1140.20     1.957     0.789    14.939
1140.40     1.737     0.269    19.207
1140.60     1.517     0.467    23.171
1140.80     1.394     0.641    32.012
1141.00     1.297     0.839    42.988
1141.20     1.199     1.012    54.268
1141.40     1.346     1.186    65.244
1141.60     1.615     1.334    74.695
1141.80     1.908     1.062    83.537
1142.00     2.202     0.988    92.683
1142.20     2.495     1.161   101.524
1142.40     2.667     1.334   108.537
1142.60     2.642     1.533   115.244
1142.80     2.642     1.706   117.683
1143.00     2.691     1.879   117.073
1143.20     2.740     1.904   116.768
1143.40     2.593     1.731   116.768
1143.60     2.446     1.557   117.683
1143.80     2.300     1.384   118.293
1144.00     2.813     1.235   118.902
1144.20     3.352     1.037   113.415
1144.40     3.914     0.839   103.963
1144.60     4.477     1.285    95.122
1144.80     4.991     1.805    85.671
1145.00     5.554     2.325    79.878
1145.20     6.116     2.870    73.780
1145.40     6.654     3.390    68.293
1145.60    11.743     3.489    62.195
1145.80    13.700     3.365    56.402
1146.00    13.333     3.241    53.049
1146.20    12.844     3.118    50.305
1146.40    12.355     2.994    47.256
1146.60    11.988     2.895    44.207
1146.80    12.844     5.669    41.159
1147.00    13.578     6.981    37.805
1147.20    14.312     6.635    35.061
1147.40    15.046     6.313    32.012
1147.60    15.780     5.966    28.963
1147.80    16.514     5.966    27.439
1148.00    17.370     6.482    26.220
1148.20    17.615     6.920    24.390
1148.40    16.636     8.653    22.866
1148.60    15.657     8.158    21.341
1148.80    14.557     7.663    19.817
1149.00    13.700     7.910    18.293
1149.20    14.312     8.777    16.463
1149.40    16.514     9.644    14.939
1149.60    15.780     8.817    13.415
1149.80    14.924     6.421    12.805
1150.00    14.190     5.000    12.500
1150.20    14.190     4.703    11.890
1150.40    15.046     4.381    11.890
1150.60    16.024     4.084    11.280
1150.80    15.413     3.786    10.976
1151.00    14.557     3.712    10.671
1151.20    13.823     3.861    10.366
1151.40    12.966     4.034    11.280
1151.60    12.232     4.183    11.890
1151.80    11.254     4.356    12.500
1152.00    10.520     4.505    12.805
1152.20     9.664     4.406    12.500
1152.40     8.930     4.034    11.890
1152.60     8.073     3.687    11.585
1152.80     8.318     3.316    10.976
1153.00    10.031     2.994    10.671
1153.20    11.988     2.622    10.671
1153.40    13.823     2.573    11.280
1153.60    15.657     2.672    11.890
1153.80    17.492     2.771    11.890
1154.00    19.327     2.870    11.585
1154.20    17.492     2.845    10.976
1154.40    15.657     2.820    10.671
1154.60    13.823     3.588    10.061
1154.80    11.865     3.514    11.890
1155.00    10.031     3.415    12.805
1155.20     8.685     3.341    13.720
1155.40     7.584     3.217    13.415
1155.60     7.339     3.836    14.329
1155.80     8.563     4.628    14.939
1156.00     9.541     5.446    16.159
1156.20    10.398     5.768    18.598
1156.40    11.621     5.570    20.427
1156.60    12.844     5.396    22.561
1156.80    14.190     5.223    24.695
1157.00    15.657     5.050    26.829
1157.20    17.125     4.876    28.659
1157.40    18.716     5.669    30.793
1157.60    20.183     6.412    32.622
1157.80    21.651     7.229    34.756
1158.00    23.242     7.430    36.890
1158.20    22.752     7.632    39.024
1158.40    22.263     7.833    40.854
1158.60    21.774     8.034    42.683
1158.80    21.284    11.006    42.683
1159.00    21.162    13.359    42.683
1159.20    21.040    15.341    42.378
1159.40    21.284    17.198    42.073
1159.60    22.018    17.941    40.854
1159.80    22.508    16.579    39.634
1160.00    23.242    15.093    38.415
1160.20    23.853    13.731    37.195
1160.40    22.997    12.245    35.976
1160.60    22.141    10.759    34.756
1160.80    21.284    11.502    34.451
1161.00    20.428    12.121    35.366
1161.20    19.694    12.864    36.280
1161.40    18.838    13.483    36.890
1161.60    20.061    13.607    38.110
1161.80    21.407    12.864    39.024
1162.00    22.752    12.121    39.939
1162.20    22.752    11.378    40.854
1162.40    21.529    10.511    41.463
1162.60    20.428    10.387    42.378
1162.80    19.205    10.759    43.293
1163.00    18.104    11.130    43.902
1163.20    16.881    11.130    44.207
1163.40    16.269    11.378    44.207
1163.60    16.147    11.997    44.512
1163.80    16.636    13.854    44.512
1164.00    17.492    15.093    44.207
1164.20    18.226    14.226    44.512
1164.40    19.083    13.235    45.122
1164.60    20.061    12.492    45.732
1164.80    19.327    11.502    46.341
1165.00    18.349    10.635    46.951
1165.20    17.492     9.768    46.951
1165.40    16.514     8.777    46.646
1165.60    15.657     9.892    45.732
1165.80    16.391    11.254    45.427
1166.00    17.125    11.006    44.817
1166.20    17.859    10.635    46.341
1166.40    18.471    10.263    48.171
1166.60    19.205    10.015    49.695
1166.80    19.939    11.997    51.220
1167.00    20.673    13.607    53.049
1167.20    21.162    15.217    53.963
1167.40    21.896    15.464    55.793
1167.60    22.752    14.845    57.317
1167.80    23.486    14.350    55.488
1168.00    24.220    15.836    53.963
1168.20    24.954    18.437    52.439
1168.40    25.566    21.037    50.915
1168.60    26.300    23.638    49.390
1168.80    26.911    23.142    49.695
1169.00    26.177    22.523    49.695
1169.20    25.566    22.028    50.000
1169.40    24.954    24.752    50.305
1169.60    24.954    34.288    51.220
1169.80    25.688    34.730    52.439
1170.00    26.422    35.172    53.659
1170.20    27.034    35.615    54.878
1170.40    27.768    37.074    55.793
1170.60    28.379    38.932    57.012
1170.80    26.544    27.167    58.232
1171.00    25.076    24.133    59.451
1171.20    23.486    21.099    59.451
1171.40    22.018    18.065    59.451
1171.60    20.428    16.455    59.451
