~Version information block
VERS.                            2.0:CWLS Log ASCII Standard-VERSION 2.0
WRAP.                            NO:One line per depth step
~Well information block
# MNEM.UNIT         DATA                       DESCRIPTION OF MNEMONIC
#---------      -------------------           -------------------------------
STRT.M                           370.00: Начальная глубина
STOP.M                          2251.00: Конечная  глубина
STEP.M                             0.20: Шаг квантования по глубине
NULL.                           -999.25: Отсутствие данных
WELL.                                11: Скважина
FLD .                              KURK: Площадь
LOC .                                  : Место
STAT.                                  : Область
CTRY.                            RUSSIA: Страна
COMP.                                  : Заказчик
SRVC.                                  : Исполнитель
DATE.                        18.12.1984: Дата каротажа
METD.                              BKZ5: Метод
SCAL.                               500: Масштаб по глубине
UWI. M38076KURK11S1:
#
~Parameter information block
#MNEM   .UNIT           VALUE                 DESCRIPTION OF MNEMONIC
#------------------    --------               ---------------------------
CATEGORY.                               -999.25:"Категория скважины"
DATED   .DD.MM.YYYY                     -999.25:"Дата разбуривания интервала (ДД.ММ.ГГГГ)"
FACE    .m                                 2251:"Глубина пробуренного забоя скважины(м)"
CBDA    .m                              -999.25:"Глубина текущего забоя скважины (м)"
ALT     .m                              -999.25:"Альтитуда стола ротора(m)"
SCD     .mm                               215.9:"Номинальный диаметр скважины (мм)"
CCD     .mm                             -999.25:"Диаметр кондуктора (мм)"
CD      .mm                             -999.25:"Диаметр колонны (мм)"
DCC     .m                              -999.25:"Глубина спуска кондуктора (м)"
CDP     .m                              -999.25:"Глубина спуска колонны (м)"
DFT     .                               -999.25:"Тип промывочной жидкости в скважине"
DFD     .g/s3                               1.2:"Плотность промывочной жидкости (г/см3)"
DFR     .Omm                            -999.25:"Сопротивление бурового раствора (Омм)"
RMF     .Omm                            -999.25:"Сопротивление фильтра промывочной жидкости (Омм)"
DFL     .sm3/30min                            9:"Водоотдача бурового раствора (см3/30мин)"
DFSLT   .g/l                            -999.25:"Минерализация промывачной жидкости (г/л)"
DFV     .s                                   35:"Вязкость бурового раствора (сек)"
RAUGK   .imp/min                        -999.25:"Коэффициент перехода ГК (имп/мкР/ч)"
RAU     .imp/min                        -999.25:"Коэффициент перехода НГК (усл.ед/имп/мин)"
RAUB    .imp/min                        -999.25:"Коэффициент перехода для большого зонда ННК (усл.ед/имп/мин)"
RAUS    .imp/min                        -999.25:"Коэффициент перехода для малого зонда ННК (усл.ед/имп/мин)"
TDLB    .imp/min                        -999.25:"Счет в эталонировочном устройстве ИННК - большой зонд (имп/мин)"
TDLS    .imp/min                        -999.25:"Счет в эталонировочном устройстве ИННК - малый зонд (имп/мин)"
TPNLGK  .s                              -999.25:"Постоянная времени ГК (сек)"
TPNLNK  .s                              -999.25:"Постоянная времени ННК (сек)"
TPNLNGK .s                              -999.25:"Постоянная времени НГК (сек)"
TPNLGGK .s                              -999.25:"Постоянная времени ГГК (сек)"
TPNLINNK.s                              -999.25:"Постоянная времени ИННК (сек)"
KNGK    .s                              -999.25:"КNGK"
SPEED   .m/h                            -999.25:"Скорость записи (м/ч)"
#
~Curve information block
DEPT.M                                  :
N11M05A.Omm                            : потенциал-зонд N11.0M0.5A,Ом.м
A2M05N.Omm                             : Подошвенный градиент-зонд A2.0M0.5N,Омм
PS.mV                                  : Потенциал самопроизвольной поляризации,мВ
~Other information block
#MNEM.UNIT                VALUE                 DESCRIPTION OF MNEMONIC
#-----------------      ------------          -------------------------------------------
TYPE.                                       Raw:"Тип данных"
TYPE1.                                      ost:"Тип записи"
KOG.                                    -999.25:"Тип кожуха прибора"
SRVC5.                                  -999.25:"Фамилия оператора каротажной партии"
NAME.                                  Bakanova:"Фамилия подготовившего las файл"
SRVC2.                                Geoproekt:"Предприятие, подготовившее LAS файл"
~A DEPT.M  N11M05A    A2M05N      PS
# ...
1256.20     9.541     6.115   100.000
1256.40    11.009     6.313    97.866
1256.60    12.477     6.486    96.037
1256.80    13.945     6.709    94.207
1257.00    15.413     6.560    92.683
1257.20    16.881     6.189    91.159
1257.40    18.593     5.842    89.939
1257.60    17.982     6.090    88.415
1257.80    17.370     6.536    87.500
1258.00    16.636     7.006    86.585
1258.20    15.902    11.006    85.671
1258.40    15.168    10.635    85.061
1258.60    14.557    10.511    84.451
1258.80    13.823    10.759    83.537
1259.00    13.211    11.378    82.927
1259.20    12.477    11.873    82.317
1259.40    11.865    12.616    77.134
1259.60    11.009    12.245    68.902
1259.80    13.089    11.873    62.500
1260.00    15.413    11.502    57.317
1260.20    17.737    11.130    52.439
1260.40    20.061    10.635    48.171
1260.60    22.385    10.635    44.817
1260.80    24.709    11.749    41.768
1261.00    27.156    12.740    39.024
1261.20    29.480    13.854    36.585
1261.40    31.804    14.845    34.146
1261.60    32.538    16.827    31.707
1261.80    32.416    19.303    29.268
1262.00    32.294    21.780    27.134
1262.20    33.272    24.133    25.610
1262.40    34.985    26.610    24.390
1262.60    36.697    29.087    23.476
1262.80    38.410    35.805    22.561
1263.00    39.878    54.412    21.341
1263.20    40.367    69.272    21.341
1263.40    40.612    59.985    27.134
1263.60    40.122    49.458    33.232
1263.80    38.043    42.294    40.549
1264.00    35.596    37.873    43.902
1264.20    33.150    33.452    47.561
1264.40    30.703    29.031    50.915
1264.60    28.257    24.610    54.573
1264.80    25.810    21.161    57.927
1265.00    23.486    19.675    61.585
1265.20    21.040    18.065    64.939
1265.40    18.593    16.455    68.293
1265.60    16.147    14.845    70.732
1265.80    13.700    13.235    75.915
1266.00    11.254    13.978    78.963
1266.20    12.722    15.712    78.354
1266.40    16.269    17.446    77.439
1266.60    20.550    16.207    76.524
1266.80    19.327    14.969    75.915
1267.00    17.615    13.607    76.524
1267.20    16.024    12.368    77.134
1267.40    14.557    11.254    78.354
1267.60    15.780    10.759    79.573
1267.80    17.003    10.263    80.488
1268.00    17.492     9.768    81.707
1268.20    16.881     9.892    82.622
1268.40    16.514    11.378    83.537
1268.60    16.147    12.864    84.146
1268.80    15.657    14.226    84.146
1269.00    19.450    15.712    83.537
1269.20    23.242    17.074    82.012
1269.40    27.034    18.560    79.573
1269.60    30.948    20.418    77.439
1269.80    34.740    22.399    75.915
1270.00    36.208    24.257    74.695
1270.20    34.373    25.310    73.780
1270.40    32.416    25.929    73.171
1270.60    30.459    20.975    73.171
1270.80    28.624    24.690    73.476
1271.00    26.789    29.025    73.780
1271.20    24.954    33.359    74.085
1271.40    22.997    37.074    74.085
1271.60    21.162    41.409    74.085
1271.80    20.795    42.647    74.085
1272.00    22.018    35.836    74.390
1272.20    23.364    27.786    72.256
1272.40    24.709    24.030    70.732
1272.60    25.933    19.923    68.293
1272.80    24.220    17.817    67.988
1273.00    22.752    15.464    67.073
1273.20    20.917    13.111    66.159
1273.40    19.327    10.882    65.549
1273.60    17.737     8.653    65.244
1273.80    16.147    12.988    65.244
1274.00    14.557    17.198    65.854
1274.20    12.966    21.285    66.463
1274.40    11.376    25.372    66.768
1274.60    11.254    22.647    66.768
1274.80    12.966    20.170    67.683
1275.00    14.679    17.570    68.902
1275.20    16.391    14.969    70.732
1275.40    18.104    12.492    73.476
1275.60    19.694     9.768    76.220
1275.80    21.407     9.025    78.659
1276.00    23.119     9.520    79.573
1276.20    24.709    10.387    78.659
1276.40    26.422    15.836    77.439
1276.60    28.257    21.409    75.610
1276.80    29.847    26.218    74.085
1277.00    31.560    31.027    72.866
1277.20    31.070    35.836    71.951
1277.40    29.725    39.551    71.951
1277.60    28.379    42.028    71.951
1277.80    26.911    45.124    71.951
1278.00    25.443    33.978    71.951
1278.20    24.098    28.505    71.951
1278.40    22.752    23.031    71.951
1278.60    21.284    18.684    71.951
1278.80    19.939    20.666    71.951
1279.00    18.593    22.028    71.951
1279.20    17.125    14.350    73.171
1279.40    15.780    13.731    75.000
1279.60    14.312    13.235    76.524
1279.80    13.089    12.864    78.354
1280.00    12.355    13.111    79.878
1280.20    13.823    14.226    81.402
1280.40    15.291    15.464    83.232
1280.60    16.758    16.703    79.878
1280.80    18.471    17.817    77.134
1281.00    17.615    16.331    74.390
1281.20    16.514    14.350    71.341
1281.40    15.413    12.368    68.902
1281.60    14.434    10.387    66.768
1281.80    13.456    17.941    64.634
1282.00    12.232    18.932    62.805
1282.20    12.844    20.046    60.061
1282.40    14.067    18.684    60.366
1282.60    15.291    15.217    61.280
1282.80    16.636    13.235    63.415
1283.00    15.902    13.854    66.159
1283.20    15.046    13.359    68.598
1283.40    14.190    12.121    70.732
1283.60    13.211    10.882    73.171
1283.80    12.477     9.396    75.610
1284.00    14.190     9.644    77.439
1284.20    15.780    14.845    78.963
1284.40    17.370    18.313    71.951
1284.60    18.960    16.331    70.427
1284.80    19.327    15.217    71.037
1285.00    18.471    14.598    71.951
1285.20    17.492    14.102    72.561
1285.40    16.514    16.827    72.561
1285.60    15.535    19.303    72.256
1285.80    14.679    16.084    72.256
1286.00    13.700    12.988    73.780
1286.20    12.722    12.368    76.524
1286.40    11.865    12.864    80.183
1286.60    12.599    13.359    85.366
1286.80    15.780    13.359    88.415
1287.00    18.960    12.492    90.854
1287.20    22.141    11.749    89.634
1287.40    25.321    14.226    84.451
1287.60    28.502    22.399    83.232
1287.80    30.336    20.666    82.927
1288.00    28.502    18.560    84.756
1288.20    26.544    16.455    85.671
1288.40    24.709    17.074    84.146
1288.60    22.875    24.257    83.232
1288.80    21.040    25.495    82.927
1289.00    19.939    24.133    82.927
1289.20    20.428    22.771    83.232
1289.40    20.795    21.285    82.927
1289.60    20.183    20.046    82.622
1289.80    19.572    18.684    82.012
1290.00    20.183    17.322    81.098
1290.20    22.508    33.173    80.183
1290.40    24.954    36.765    78.963
1290.60    27.156    38.870    78.049
1290.80    29.602    38.994    76.829
1291.00    31.804    38.498    75.915
1291.20    30.459    33.173    75.915
1291.40    29.235    28.096    80.488
1291.60    27.890    22.895    82.622
1291.80    26.667    18.684    84.451
1292.00    25.076    21.904    85.976
1292.20    23.486    26.115    88.415
1292.40    21.774    30.077    89.634
1292.60    20.183    34.288    90.854
1292.80    20.673    38.498    83.232
1293.00    22.385    15.960    80.793
1293.20    21.774    20.170    78.354
1293.40    21.040    23.390    75.610
1293.60    20.306    26.362    72.866
1293.80    19.694    29.582    70.732
1294.00    28.991    32.802    71.037
1294.20    37.187    36.300    71.646
1294.40    39.144    39.334    72.866
1294.60    39.388    42.368    74.695
1294.80    38.043    53.173    76.220
1295.00    36.453    62.461    78.354
1295.20    35.107    30.263    78.354
1295.40    33.517    32.740    77.134
1295.60    32.049    34.598    75.000
1295.80    30.581    34.342    71.646
1296.00    29.113    31.354    68.598
1296.20    27.523    28.367    65.854
1296.40    26.055    25.379    64.024
1296.60    24.587    22.523    64.939
1296.80    23.119    19.799    65.549
1297.00    21.529    17.074    66.768
1297.20    20.183    14.350    67.683
1297.40    18.593    11.006    69.817
1297.60    17.248    13.111    58.841
1297.80    15.657    15.836    51.220
1298.00    14.434    18.065    50.915
1298.20    21.407    16.455    51.220
