~Version information block
VERS.                            2.0:CWLS Log ASCII Standard-VERSION 2.0
WRAP.                            NO:One line per depth step
~Well information block
# MNEM.UNIT         DATA                       DESCRIPTION OF MNEMONIC
#---------      -------------------           -------------------------------
STRT.M                           370.00: Начальная глубина
STOP.M                          2251.00: Конечная  глубина
STEP.M                             0.20: Шаг квантования по глубине
NULL.                           -999.25: Отсутствие данных
WELL.                                11: Скважина
FLD .                              KURK: Площадь
LOC .                                  : Место
STAT.                                  : Область
CTRY.                            RUSSIA: Страна
COMP.                                  : Заказчик
SRVC.                                  : Исполнитель
DATE.                        18.12.1984: Дата каротажа
METD.                              BKZ5: Метод
SCAL.                               500: Масштаб по глубине
UWI. M38076KURK11S1:
#
~Parameter information block
#MNEM   .UNIT           VALUE                 DESCRIPTION OF MNEMONIC
#------------------    --------               ---------------------------
CATEGORY.                               -999.25:"Категория скважины"
DATED   .DD.MM.YYYY                     -999.25:"Дата разбуривания интервала (ДД.ММ.ГГГГ)"
FACE    .m                                 2251:"Глубина пробуренного забоя скважины(м)"
CBDA    .m                              -999.25:"Глубина текущего забоя скважины (м)"
ALT     .m                              -999.25:"Альтитуда стола ротора(m)"
SCD     .mm                               215.9:"Номинальный диаметр скважины (мм)"
CCD     .mm                             -999.25:"Диаметр кондуктора (мм)"
CD      .mm                             -999.25:"Диаметр колонны (мм)"
DCC     .m                              -999.25:"Глубина спуска кондуктора (м)"
CDP     .m                              -999.25:"Глубина спуска колонны (м)"
DFT     .                               -999.25:"Тип промывочной жидкости в скважине"
DFD     .g/s3                               1.2:"Плотность промывочной жидкости (г/см3)"
DFR     .Omm                            -999.25:"Сопротивление бурового раствора (Омм)"
RMF     .Omm                            -999.25:"Сопротивление фильтра промывочной жидкости (Омм)"
DFL     .sm3/30min                            9:"Водоотдача бурового раствора (см3/30мин)"
DFSLT   .g/l                            -999.25:"Минерализация промывачной жидкости (г/л)"
DFV     .s                                   35:"Вязкость бурового раствора (сек)"
RAUGK   .imp/min                        -999.25:"Коэффициент перехода ГК (имп/мкР/ч)"
RAU     .imp/min                        -999.25:"Коэффициент перехода НГК (усл.ед/имп/мин)"
RAUB    .imp/min                        -999.25:"Коэффициент перехода для большого зонда ННК (усл.ед/имп/мин)"
RAUS    .imp/min                        -999.25:"Коэффициент перехода для малого зонда ННК (усл.ед/имп/мин)"
TDLB    .imp/min                        -999.25:"Счет в эталонировочном устройстве ИННК - большой зонд (имп/мин)"
TDLS    .imp/min                        -999.25:"Счет в эталонировочном устройстве ИННК - малый зонд (имп/мин)"
TPNLGK  .s                              -999.25:"Постоянная времени ГК (сек)"
TPNLNK  .s                              -999.25:"Постоянная времени ННК (сек)"
TPNLNGK .s                              -999.25:"Постоянная времени НГК (сек)"
TPNLGGK .s                              -999.25:"Постоянная времени ГГК (сек)"
TPNLINNK.s                              -999.25:"Постоянная времени ИННК (сек)"
KNGK    .s                              -999.25:"КNGK"
SPEED   .m/h                            -999.25:"Скорость записи (м/ч)"
#
~Curve information block
DEPT.M                                  :
N11M05A.Omm                            : потенциал-зонд N11.0M0.5A,Ом.м
A2M05N.Omm                             : Подошвенный градиент-зонд A2.0M0.5N,Омм
PS.mV                                  : Потенциал самопроизвольной поляризации,мВ
~Other information block
#MNEM.UNIT                VALUE                 DESCRIPTION OF MNEMONIC
#-----------------      ------------          -------------------------------------------
TYPE.                                       Raw:"Тип данных"
TYPE1.                                      ost:"Тип записи"
KOG.                                    -999.25:"Тип кожуха прибора"
SRVC5.                                  -999.25:"Фамилия оператора каротажной партии"
NAME.                                  Bakanova:"Фамилия подготовившего las файл"
SRVC2.                                Geoproekt:"Предприятие, подготовившее LAS файл"
~A DEPT.M  N11M05A    A2M05N      PS
# ...
 749.80     4.330     4.950    68.902
 750.00     4.771     3.985    67.073
 750.20     5.309     3.019    67.378
 750.40     5.187     2.102    69.207
 750.60     4.991     1.805    70.122
 750.80     4.844     1.681    71.341
 751.00     4.673     1.954    71.951
 751.20     4.502     2.276    71.341
 751.40     4.330     2.598    71.037
 751.60     4.159     2.920    71.951
 751.80     4.012     3.142    74.085
 752.00     3.841     3.217    71.951
 752.20     3.670     3.068    70.122
 752.40     3.498     2.920    68.598
 752.60     3.327     2.697    73.476
 752.80     3.156     2.474    75.915
 753.00     2.985     2.201    72.256
 753.20     2.813     1.929    71.037
 753.40     2.642     1.681    69.817
 753.60     2.471     1.533    68.293
 753.80     3.107     1.458    67.683
 754.00     4.526     1.533    67.073
 754.20     5.407     1.632    67.378
 754.40     5.113     1.755    67.378
 754.60     4.795     1.854    68.902
 754.80     4.502     1.978    71.037
 755.00     4.183     2.077    73.780
 755.20     3.890     2.176    75.305
 755.40     3.596     2.127    78.354
 755.60     3.303     2.077    71.951
 755.80     2.985     2.003    68.293
 756.00     2.740     1.904    64.329
 756.20     3.131     1.830    60.366
 756.40     3.450     1.731    56.707
 756.60     3.743     1.632    53.659
 756.80     4.086     1.508    54.573
 757.00     4.404     1.409    55.488
 757.20     4.722     1.359    56.098
 757.40     5.113     1.458    57.012
 757.60     5.529     1.656    55.488
 757.80     5.945     1.904    54.573
 758.00     6.385     2.226    55.793
 758.20     6.777     2.498    58.841
 758.40     7.193     2.424    61.280
 758.60     7.609     2.300    56.707
 758.80     8.049     2.102    55.183
 759.00     8.416     1.904    53.354
 759.20     6.728     1.706    52.134
 759.40     5.187     1.508    51.220
 759.60     3.547     1.334    50.610
 759.80     3.890     1.334    51.220
 760.00     4.281     1.458    51.829
 760.20     4.648     1.632    53.659
 760.40     5.040     1.830    55.793
 760.60     5.407     2.077    58.841
 760.80     5.774     2.325    61.890
 761.00     6.165     2.523    65.244
 761.20     6.532     2.573    68.293
 761.40     6.899     2.523    71.646
 761.60     7.291     2.449    75.000
 761.80     7.657     2.325    77.134
 762.00     8.024     2.226    78.659
 762.20     6.997     2.127    73.780
 762.40     5.945     2.028    64.329
 762.60     5.407     2.102    62.805
 762.80     4.991     2.152    52.134
 763.00     4.550     2.251    55.793
 763.20     4.135     2.325    57.622
 763.40     3.719     2.300    60.061
 763.60     3.963     2.251    55.793
 763.80     4.183     2.176    58.841
 764.00     4.404     2.053    60.671
 764.20     4.648     1.929    62.805
 764.40     4.869     1.780    64.329
 764.60     5.089     1.681    66.463
 764.80     4.893     1.582    68.293
 765.00     4.306     1.557    70.122
 765.20     3.743     1.557    68.293
 765.40     3.572     1.557    70.122
 765.60     3.621     1.557    72.256
 765.80     3.645     1.508    73.476
 766.00     3.621     1.433    72.256
 766.20     3.523     1.409    73.780
 766.40     3.401     1.359    75.610
 766.60     3.278     1.409    77.439
 766.80     3.180     1.483    78.049
 767.00     3.058     1.656    78.963
 767.20     2.960     1.780    77.744
 767.40     2.862     1.805    76.220
 767.60     2.887     1.731    75.000
 767.80     2.911     1.656    74.695
 768.00     2.936     1.557    75.305
 768.20     2.936     1.508    76.524
 768.40     2.862     1.533    77.134
 768.60     2.789     1.582    77.744
 768.80     2.691     1.607    79.268
 769.00     2.593     1.607    74.695
 769.20     2.520     1.656    73.780
 769.40     2.446     1.755    74.085
 769.60     2.471     1.929    75.915
 769.80     2.471     2.003    76.829
 770.00     2.471     2.003    77.744
 770.20     2.422     2.003    78.659
 770.40     2.422     2.003    75.305
 770.60     2.373     2.152    76.524
 770.80     2.446     2.152    78.963
 771.00     2.544     2.102    80.183
 771.20     2.642     2.003    81.402
 771.40     2.667     1.904    77.134
 771.60     2.642     1.830    75.305
 771.80     2.618     1.755    78.963
 772.00     2.593     1.706    79.573
 772.20     2.593     1.755    80.488
 772.40     2.569     1.879    81.098
 772.60     2.593     2.028    81.098
 772.80     2.618     2.176    79.878
 773.00     2.618     2.226    78.659
 773.20     2.569     2.176    77.134
 773.40     2.495     2.077    75.915
 773.60     2.471     2.028    76.220
 773.80     2.520     2.053    76.829
 774.00     2.520     2.152    76.220
 774.20     2.544     2.276    75.305
 774.40     2.642     2.325    74.085
 774.60     2.813     2.251    75.000
 774.80     2.862     2.176    75.915
 775.00     2.765     2.102    76.829
 775.20     2.691     2.028    76.829
 775.40     2.593     1.978    76.220
 775.60     2.593     1.929    75.610
 775.80     2.691     1.978    75.000
 776.00     2.765     2.077    74.695
 776.20     2.691     2.895    74.085
 776.40     2.618     3.167    73.780
 776.60     2.544     2.870    74.695
 776.80     2.471     2.523    75.305
 777.00     2.569     2.176    76.220
 777.20     2.667     1.929    76.524
 777.40     2.813     1.854    76.220
 777.60     2.960     2.003    75.610
 777.80     2.862     2.201    75.305
 778.00     2.789     2.350    74.695
 778.20     2.789     2.300    74.085
 778.40     2.838     2.102    73.476
 778.60     2.862     1.954    72.866
 778.80     2.911     2.003    73.171
 779.00     2.936     2.003    73.780
 779.20     2.813     1.954    75.305
 779.40     2.716     1.904    76.524
 779.60     2.618     1.854    77.439
 779.80     2.618     1.805    75.305
 780.00     2.765     1.805    76.220
 780.20     2.887     1.854    77.134
 780.40     2.985     2.622    78.354
 780.60     3.107     3.489    80.183
 780.80     3.229     4.307    81.402
 781.00     3.303     4.876    82.012
 781.20     3.425     5.248    80.793
 781.40     3.547     4.282    78.049
 781.60     3.498     2.895    75.915
 781.80     3.303     2.201    77.134
 782.00     3.107     1.755    77.744
 782.20     3.034     1.433    78.049
 782.40     3.156     1.879    75.305
 782.60     3.254     2.573    72.561
 782.80     3.352     3.341    72.561
 783.00     3.254     4.381    73.171
 783.20     3.156     4.084    73.780
 783.40     3.083     3.836    73.476
 783.60     3.254     3.390    73.780
 783.80     3.425     3.093    74.695
 784.00     3.596     2.796    76.220
 784.20     3.743     2.498    78.659
 784.40     3.670     2.127    79.878
 784.60     3.450     1.978    80.488
 784.80     3.229     2.201    81.402
 785.00     3.009     2.498    75.305
 785.20     2.887     2.721    73.476
 785.40     2.911     2.870    71.951
 785.60     2.936     2.820    71.646
 785.80     2.936     2.771    72.256
 786.00     3.034     2.796    73.171
 786.20     3.131     3.019    74.390
 786.40     3.131     3.142    75.915
 786.60     3.107     3.093    77.439
 786.80     3.083     2.870    79.268
 787.00     3.058     2.647    78.354
 787.20     3.229     2.697    73.476
 787.40     3.401     3.142    70.427
 787.60     3.572     3.415    68.293
 787.80     3.743     3.167    69.512
 788.00     3.914     2.870    71.646
 788.20     4.086     2.622    73.780
 788.40     3.450     2.424    75.915
 788.60     3.131     2.300    78.049
 788.80     3.229     2.350    79.573
 789.00     3.327     2.375    79.268
 789.20     3.425     3.019    78.354
 789.40     3.376     3.489    77.439
 789.60     3.376     3.687    77.744
 789.80     3.327     3.489    78.354
 790.00     3.425     3.068    79.268
 790.20     3.719     2.598    80.488
 790.40     3.817     2.251    67.683
 790.60     3.694     1.978    68.293
 790.80     3.547     1.780    69.512
 791.00     3.547     1.830    70.732
 791.20     3.817     2.077    72.256
 791.40     3.939     2.251    73.780
 791.60     3.694     2.325    74.695
 791.80     3.596     2.375    74.695
