~Version information block
VERS.                            2.0:CWLS Log ASCII Standard-VERSION 2.0
WRAP.                            NO:One line per depth step
~Well information block
# MNEM.UNIT         DATA                       DESCRIPTION OF MNEMONIC
#---------      -------------------           -------------------------------
STRT.M                           370.00: Начальная глубина
STOP.M                          2251.00: Конечная  глубина
STEP.M                             0.20: Шаг квантования по глубине
NULL.                           -999.25: Отсутствие данных
WELL.                                11: Скважина
FLD .                              KURK: Площадь
LOC .                                  : Место
STAT.                                  : Область
CTRY.                            RUSSIA: Страна
COMP.                                  : Заказчик
SRVC.                                  : Исполнитель
DATE.                        18.12.1984: Дата каротажа
METD.                              BKZ5: Метод
SCAL.                               500: Масштаб по глубине
UWI. M38076KURK11S1:
#
~Parameter information block
#MNEM   .UNIT           VALUE                 DESCRIPTION OF MNEMONIC
#------------------    --------               ---------------------------
CATEGORY.                               -999.25:"Категория скважины"
DATED   .DD.MM.YYYY                     -999.25:"Дата разбуривания интервала (ДД.ММ.ГГГГ)"
FACE    .m                                 2251:"Глубина пробуренного забоя скважины(м)"
CBDA    .m                              -999.25:"Глубина текущего забоя скважины (м)"
ALT     .m                              -999.25:"Альтитуда стола ротора(m)"
SCD     .mm                               215.9:"Номинальный диаметр скважины (мм)"
CCD     .mm                             -999.25:"Диаметр кондуктора (мм)"
CD      .mm                             -999.25:"Диаметр колонны (мм)"
DCC     .m                              -999.25:"Глубина спуска кондуктора (м)"
CDP     .m                              -999.25:"Глубина спуска колонны (м)"
DFT     .                               -999.25:"Тип промывочной жидкости в скважине"
DFD     .g/s3                               1.2:"Плотность промывочной жидкости (г/см3)"
DFR     .Omm                            -999.25:"Сопротивление бурового раствора (Омм)"
RMF     .Omm                            -999.25:"Сопротивление фильтра промывочной жидкости (Омм)"
DFL     .sm3/30min                            9:"Водоотдача бурового раствора (см3/30мин)"
DFSLT   .g/l                            -999.25:"Минерализация промывачной жидкости (г/л)"
DFV     .s                                   35:"Вязкость бурового раствора (сек)"
RAUGK   .imp/min                        -999.25:"Коэффициент перехода ГК (имп/мкР/ч)"
RAU     .imp/min                        -999.25:"Коэффициент перехода НГК (усл.ед/имп/мин)"
RAUB    .imp/min                        -999.25:"Коэффициент перехода для большого зонда ННК (усл.ед/имп/мин)"
RAUS    .imp/min                        -999.25:"Коэффициент перехода для малого зонда ННК (усл.ед/имп/мин)"
TDLB    .imp/min                        -999.25:"Счет в эталонировочном устройстве ИННК - большой зонд (имп/мин)"
TDLS    .imp/min                        -999.25:"Счет в эталонировочном устройстве ИННК - малый зонд (имп/мин)"
TPNLGK  .s                              -999.25:"Постоянная времени ГК (сек)"
TPNLNK  .s                              -999.25:"Постоянная времени ННК (сек)"
TPNLNGK .s                              -999.25:"Постоянная времени НГК (сек)"
TPNLGGK .s                              -999.25:"Постоянная времени ГГК (сек)"
TPNLINNK.s                              -999.25:"Постоянная времени ИННК (сек)"
KNGK    .s                              -999.25:"КNGK"
SPEED   .m/h                            -999.25:"Скорость записи (м/ч)"
#
~Curve information block
DEPT.M                                  :
N11M05A.Omm                            : потенциал-зонд N11.0M0.5A,Ом.м
A2M05N.Omm                             : Подошвенный градиент-зонд A2.0M0.5N,Омм
PS.mV                                  : Потенциал самопроизвольной поляризации,мВ
~Other information block
#MNEM.UNIT                VALUE                 DESCRIPTION OF MNEMONIC
#-----------------      ------------          -------------------------------------------
TYPE.                                       Raw:"Тип данных"
TYPE1.                                      ost:"Тип записи"
KOG.                                    -999.25:"Тип кожуха прибора"
SRVC5.                                  -999.25:"Фамилия оператора каротажной партии"
NAME.                                  Bakanova:"Фамилия подготовившего las файл"
SRVC2.                                Geoproekt:"Предприятие, подготовившее LAS файл"
~A DEPT.M  N11M05A    A2M05N      PS
# ...
 496.60    23.731    19.923    84.451
 496.80    21.774    21.037    83.232
 497.00    19.817    22.028    82.622
 497.20    18.349    23.142    83.232
 497.40    18.471    24.381    84.451
 497.60    18.716    23.762    84.146
 497.80    18.716    23.142    83.232
 498.00    18.838    24.257    82.927
 498.20    18.960    25.372    83.232
 498.40    19.327    26.362    85.061
 498.60    19.450    27.353    87.500
 498.80    19.694    23.762    89.634
 499.00    20.061    13.359    91.159
 499.20    20.917    13.854    91.159
 499.40    20.550    14.350    90.549
 499.60    18.716    14.845    88.720
 499.80    16.758    15.464    87.195
 500.00    14.924    15.960    86.585
 500.20    12.966    14.682    87.805
 500.40    11.009    11.632    89.024
 500.60    10.153     8.581    90.549
 500.80     9.419     6.610    91.159
 501.00     9.664     6.164    90.854
 501.20    10.887     5.669    90.244
 501.40    12.110     5.223    89.329
 501.60    11.376     4.777    88.415
 501.80    10.765     7.378    86.890
 502.00    10.153     8.817    85.671
 502.20     9.419    10.256    85.671
 502.40    13.700    11.696    86.890
 502.60    19.572    13.135    88.720
 502.80    25.199    13.483    90.549
 503.00    24.098    12.988    91.463
 503.20    22.997    12.368    92.378
 503.40    21.896    12.121    90.549
 503.60    20.795    11.873    88.110
 503.80    19.694    11.749    86.280
 504.00    18.593    16.207    85.061
 504.20    17.492    19.923    84.146
 504.40    16.514    20.046    83.841
 504.60    15.413    18.560    83.841
 504.80    14.312    17.322    83.841
 505.00    13.333    19.923    83.537
 505.20    15.413    22.152    82.927
 505.40    17.125    21.409    81.402
 505.60    19.083    19.427    81.098
 505.80    20.795    17.322    79.268
 506.00    22.630    15.341    81.402
 506.20    21.774    13.235    82.622
 506.40    21.040    11.254    82.622
 506.60    20.183     9.272    82.012
 506.80    19.450     7.910    80.793
 507.00    18.593     7.043    80.183
 507.20    17.737     6.424    80.183
 507.40    17.003     8.034    81.707
 507.60    16.024     9.644    82.927
 507.80    15.291    11.254    84.756
 508.00    14.434    12.864    85.976
 508.20    13.700    12.864    85.976
 508.40    12.844    11.749    84.756
 508.60    12.110    10.635    83.537
 508.80    11.254     9.396    82.622
 509.00    10.642     8.406    81.402
 509.20    10.153     7.415    79.878
 509.40     9.664     9.272    78.354
 509.60     9.297    11.006    77.439
 509.80     8.807    12.740    78.049
 510.00    12.599    14.350    80.488
 510.20    21.162    15.960    83.232
 510.40    26.422    16.331    85.671
 510.60    25.443    14.721    87.500
 510.80    24.343    12.988    89.329
 511.00    23.364    15.093    91.159
 511.20    22.385    17.446    93.293
 511.40    21.407    18.437    95.427
 511.60    20.306    16.827    96.951
 511.80    19.327    15.341    98.171
 512.00    18.349    13.854    99.085
 512.20    17.248    12.245    98.780
 512.40    16.269    10.635    98.171
 512.60    15.291     9.149    97.256
 512.80    14.312     7.415    96.037
 513.00    13.211     8.653    95.427
 513.20    12.232    10.139    95.427
 513.40    11.254    11.625    94.817
 513.60    10.275    12.988    93.598
 513.80     9.174    13.978    91.768
 514.00     8.440    14.474    89.634
 514.20    10.642    13.607    87.500
 514.40    12.355    12.988    85.061
 514.60    14.190    14.102    82.317
 514.80    15.902    16.084    80.183
 515.00    17.615    18.189    78.354
 515.20    19.327    15.341    76.829
 515.40    21.162    13.731    75.305
 515.60    23.242    12.368    74.390
 515.80    21.896    11.006    74.390
 516.00    20.306     9.644    76.220
 516.20    18.593     8.034    79.573
 516.40    17.003     6.672    83.841
 516.60    15.291     6.796    86.890
 516.80    14.067     8.158    89.634
 517.00    13.170    10.139    92.683
 517.20    12.273    11.873    95.427
 517.40    11.376    11.254    96.951
 517.60    10.479    10.759    97.866
 517.80     9.582    10.139    98.476
 518.00     8.685     9.520    96.341
 518.20     7.788    16.455    94.207
 518.40     7.168    14.474    92.378
 518.60     6.801    12.740    91.159
 518.80     6.434    11.006    89.329
 519.00     6.067     9.272    87.805
 519.20     5.725     7.910    86.585
 519.40     5.358     6.020    85.976
 519.60     5.040     4.604    85.061
 519.80     4.869     3.935    85.366
 520.00     4.673     3.291    86.280
 520.20     4.771     2.697    87.500
 520.40     4.991     3.613    87.500
 520.60     5.235     4.480    87.500
 520.80     5.480     5.201    86.890
 521.00     5.700     5.604    86.890
 521.20     6.116     6.006    86.585
 521.40     6.679     6.409    88.110
 521.60     7.217     6.811    88.720
 521.80     7.657     7.214    88.720
 522.00     8.950     8.529    90.244
 522.20    10.243     9.520    90.854
 522.40    11.535    10.635    91.159
 522.60    12.828    10.263    91.768
 522.80    14.120     9.396    92.073
 523.00    15.413     8.653    92.073
 523.20    16.881     4.480    90.244
 523.40    17.492     4.034    86.890
 523.60    16.514     3.712    83.232
 523.80    15.291     3.390    79.268
 524.00    14.312     5.198    75.915
 524.20    13.089     6.231    72.866
 524.40    11.865     7.949    71.341
 524.60    10.275     9.667    71.037
 524.80     8.196    11.385    73.476
 525.00    10.642    13.111    76.524
 525.20    13.700    14.845    79.573
 525.40    18.349    13.607    82.622
 525.60    24.343    12.121    84.451
 525.80    21.651    11.625    83.537
 526.00    18.226    13.731    81.707
 526.20    15.780    15.960    79.268
 526.40    14.801    16.331    76.220
 526.60    13.945    15.712    72.561
 526.80    13.333    14.845    69.207
 527.00    17.125    13.978    66.768
 527.20    20.306    12.988    66.159
 527.40    23.364    12.121    68.902
 527.60    25.076    11.749    71.341
 527.80    23.242    11.006    74.390
 528.00    21.651    11.254    77.439
 528.20    19.817    10.759    80.793
 528.40    18.593    18.189    83.537
 528.60    17.982    15.836    85.671
 528.80    17.248    13.235    86.890
 529.00    16.514    14.845    85.671
 529.20    15.657    16.827    81.707
 529.40    14.434    18.560    75.610
 529.60    13.578    18.065    71.037
 529.80    13.211    17.570    67.073
 530.00    12.966    22.523    64.329
 530.20    12.844    30.449    61.890
 530.40    12.477    30.841    60.671
 530.60    14.067    31.233    60.671
 530.80    15.902    31.625    62.500
 531.00    17.737    32.018    64.939
 531.20    19.450    32.410    66.463
 531.40    27.768    32.802    69.512
 531.60    39.755    33.194    72.256
 531.80    38.532    33.586    74.390
 532.00    37.187    33.978    74.390
 532.20    35.841    38.313    74.390
 532.40    34.495    42.028    74.695
 532.60    33.028    45.743    75.000
 532.80    31.560    48.839    75.915
 533.00    30.214    51.316    76.829
 533.20    28.869    43.675    77.744
 533.40    27.401    35.824    78.659
 533.60    26.055    27.972    79.268
 533.80    24.832    19.551    79.878
 534.00    23.731    18.932    78.659
 534.20    22.630    20.789    76.220
 534.40    21.651    22.647    73.476
 534.60    20.550    23.266    70.427
 534.80    19.450    22.028    75.610
 535.00    18.471    20.913    79.878
 535.20    17.125    19.675    81.707
 535.40    18.104    20.294    82.927
 535.60    19.572    21.161    76.829
 535.80    20.673    21.780    71.646
 536.00    19.083    22.276    64.024
 536.20    17.859    19.551    64.939
 536.40    16.636    16.331    65.854
 536.60    15.168    13.235    66.463
 536.80    16.391    11.502    67.073
 537.00    17.982    10.139    63.110
 537.20    17.615     8.777    60.366
 537.40    17.125     7.539    64.634
 537.60    16.636     9.768    67.988
 537.80    16.269    11.873    71.646
 538.00    18.226    13.978    75.000
 538.20    20.061    16.084    77.744
 538.40    21.774    18.189    80.488
 538.60    23.486    20.294    82.622
