~Version information block
VERS.                            2.0:CWLS Log ASCII Standard-VERSION 2.0
WRAP.                            NO:One line per depth step
~Well information block
# MNEM.UNIT         DATA                       DESCRIPTION OF MNEMONIC
#---------      -------------------           -------------------------------
STRT.M                           370.00: Начальная глубина
STOP.M                          2251.00: Конечная  глубина
STEP.M                             0.20: Шаг квантования по глубине
NULL.                           -999.25: Отсутствие данных
WELL.                                11: Скважина
FLD .                              KURK: Площадь
LOC .                                  : Место
STAT.                                  : Область
CTRY.                            RUSSIA: Страна
COMP.                                  : Заказчик
SRVC.                                  : Исполнитель
DATE.                        18.12.1984: Дата каротажа
METD.                              BKZ5: Метод
SCAL.                               500: Масштаб по глубине
UWI. M38076KURK11S1:
#
~Parameter information block
#MNEM   .UNIT           VALUE                 DESCRIPTION OF MNEMONIC
#------------------    --------               ---------------------------
CATEGORY.                               -999.25:"Категория скважины"
DATED   .DD.MM.YYYY                     -999.25:"Дата разбуривания интервала (ДД.ММ.ГГГГ)"
FACE    .m                                 2251:"Глубина пробуренного забоя скважины(м)"
CBDA    .m                              -999.25:"Глубина текущего забоя скважины (м)"
ALT     .m                              -999.25:"Альтитуда стола ротора(m)"
SCD     .mm                               215.9:"Номинальный диаметр скважины (мм)"
CCD     .mm                             -999.25:"Диаметр кондуктора (мм)"
CD      .mm                             -999.25:"Диаметр колонны (мм)"
DCC     .m                              -999.25:"Глубина спуска кондуктора (м)"
CDP     .m                              -999.25:"Глубина спуска колонны (м)"
DFT     .                               -999.25:"Тип промывочной жидкости в скважине"
DFD     .g/s3                               1.2:"Плотность промывочной жидкости (г/см3)"
DFR     .Omm                            -999.25:"Сопротивление бурового раствора (Омм)"
RMF     .Omm                            -999.25:"Сопротивление фильтра промывочной жидкости (Омм)"
DFL     .sm3/30min                            9:"Водоотдача бурового раствора (см3/30мин)"
DFSLT   .g/l                            -999.25:"Минерализация промывачной жидкости (г/л)"
DFV     .s                                   35:"Вязкость бурового раствора (сек)"
RAUGK   .imp/min                        -999.25:"Коэффициент перехода ГК (имп/мкР/ч)"
RAU     .imp/min                        -999.25:"Коэффициент перехода НГК (усл.ед/имп/мин)"
RAUB    .imp/min                        -999.25:"Коэффициент перехода для большого зонда ННК (усл.ед/имп/мин)"
RAUS    .imp/min                        -999.25:"Коэффициент перехода для малого зонда ННК (усл.ед/имп/мин)"
TDLB    .imp/min                        -999.25:"Счет в эталонировочном устройстве ИННК - большой зонд (имп/мин)"
TDLS    .imp/min                        -999.25:"Счет в эталонировочном устройстве ИННК - малый зонд (имп/мин)"
TPNLGK  .s                              -999.25:"Постоянная времени ГК (сек)"
TPNLNK  .s                              -999.25:"Постоянная времени ННК (сек)"
TPNLNGK .s                              -999.25:"Постоянная времени НГК (сек)"
TPNLGGK .s                              -999.25:"Постоянная времени ГГК (сек)"
TPNLINNK.s                              -999.25:"Постоянная времени ИННК (сек)"
KNGK    .s                              -999.25:"КNGK"
SPEED   .m/h                            -999.25:"Скорость записи (м/ч)"
#
~Curve information block
DEPT.M                                  :
N11M05A.Omm                            : потенциал-зонд N11.0M0.5A,Ом.м
A2M05N.Omm                             : Подошвенный градиент-зонд A2.0M0.5N,Омм
PS.mV                                  : Потенциал самопроизвольной поляризации,мВ
~Other information block
#MNEM.UNIT                VALUE                 DESCRIPTION OF MNEMONIC
#-----------------      ------------          -------------------------------------------
TYPE.                                       Raw:"Тип данных"
TYPE1.                                      ost:"Тип записи"
KOG.                                    -999.25:"Тип кожуха прибора"
SRVC5.                                  -999.25:"Фамилия оператора каротажной партии"
NAME.                                  Bakanova:"Фамилия подготовившего las файл"
SRVC2.                                Geoproekt:"Предприятие, подготовившее LAS файл"
~A DEPT.M  N11M05A    A2M05N      PS
# ...
1467.20    16.514    18.437    89.329
1467.40    14.924    16.950    90.549
1467.60    13.823    17.817    90.854
1467.80    12.844    18.684    90.549
1468.00    12.232    19.675    90.244
1468.20    12.844    18.313    90.549
1468.40    13.700    16.703    91.768
1468.60    14.924    15.093    93.598
1468.80    16.024    14.350    95.427
1469.00    17.248    13.607    96.951
1469.20    18.226    13.111    97.866
1469.40    19.205    13.854    98.171
1469.60    20.183    15.093    98.476
1469.80    21.284    16.455    97.866
1470.00    22.385    17.817    96.951
1470.20    22.997    18.313    95.732
1470.40    22.875    17.817    95.122
1470.60    21.651    17.322    94.817
1470.80    20.306    17.074    95.732
1471.00    18.960    17.693    96.646
1471.20    17.615    18.684    97.866
1471.40    16.636    19.799    99.390
1471.60    16.024    20.666   100.305
1471.80    15.902    20.666    99.695
1472.00    17.248    20.170    98.780
1472.20    18.593    19.551    97.256
1472.40    18.716    18.560    95.732
1472.60    18.593    17.446    93.902
1472.80    18.716    16.331    91.159
1473.00    18.838    15.836    88.110
1473.20    19.205    16.455    85.061
1473.40    19.572    17.322    82.317
1473.60    20.428    17.941    79.878
1473.80    21.774    18.437    78.354
1474.00    22.630    19.427    78.354
1474.20    23.119    20.789    79.573
1474.40    23.242    22.028    81.402
1474.60    23.242    23.019    82.622
1474.80    23.731    23.019    82.317
1475.00    24.220    23.266    82.317
1475.20    24.343    24.133    82.012
1475.40    24.098    25.248    82.317
1475.60    23.731    26.486    84.451
1475.80    23.609    28.344    86.585
1476.00    23.486    29.954    88.720
1476.20    23.731    29.458    91.159
1476.40    24.587    28.467    92.988
1476.60    25.443    27.229    94.512
1476.80    25.199    26.486    95.732
1477.00    24.587    26.981    96.951
1477.20    23.853    28.344    97.866
1477.40    23.609    29.954    98.171
1477.60    24.465    31.563    98.476
1477.80    25.810    33.297    98.780
1478.00    27.156    34.783    98.780
1478.20    28.257    34.288    98.476
1478.40    29.358    32.678    97.866
1478.60    30.336    30.820    96.951
1478.80    31.193    29.458    96.341
1479.00    31.315    30.077    95.122
1479.20    30.459    30.820    94.512
1479.40    29.235    31.687    94.207
1479.60    27.890    32.802    94.817
1479.80    26.667    30.325    95.732
1480.00    25.199    29.334    95.732
1480.20    23.731    30.077    95.732
1480.40    22.385    30.820    95.427
1480.60    21.407    31.687    94.817
1480.80    20.428    29.458    94.207
1481.00    20.550    28.220    93.902
1481.20    20.917    26.734    94.207
1481.40    21.040    25.248    95.122
1481.60    20.550    24.257    96.341
1481.80    19.817    23.142    97.561
1482.00    19.083    21.656    97.561
1482.20    18.471    19.923    97.256
1482.40    17.859    18.313    96.646
1482.60    17.492    17.198    96.341
1482.80    17.125    16.950    97.256
1483.00    16.758    17.817    97.866
1483.20    16.881    18.560    99.390
1483.40    16.881    19.056   100.000
1483.60    16.758    18.560   100.610
1483.80    16.636    17.941   100.305
1484.00    16.391    17.198    99.390
1484.20    16.147    16.827    97.866
1484.40    16.024    17.322    96.646
1484.60    16.636    18.189    94.817
1484.80    17.737    19.056    93.293
1485.00    19.939    19.923    93.902
1485.20    20.061    20.666    95.732
1485.40    19.694    20.913    97.561
1485.60    18.838    19.799    99.085
1485.80    17.859    18.065   100.000
1486.00    16.514    15.960    99.695
1486.20    15.535    14.474    99.085
1486.40    14.557    13.978    97.866
1486.60    13.700    13.978    96.037
1486.80    13.089    14.598    93.598
1487.00    12.599    16.827    90.854
1487.20    12.232    19.923    88.110
1487.40    12.232    22.523    85.671
1487.60    12.110    22.647    83.232
1487.80    11.743    20.294    80.488
1488.00    11.254    19.427    78.354
1488.20    10.716    17.972    76.524
1488.40    10.177    16.516    75.000
1488.60     9.639    15.061    73.476
1488.80     9.101    13.605    72.256
1489.00     8.563    12.150    71.341
1489.20     8.024    10.694    70.732
1489.40     7.486     9.239    71.646
1489.60     6.948     7.783    73.171
1489.80     6.410     6.907    75.000
1490.00     6.239     6.585    75.305
1490.20     6.557     6.263    72.866
1490.40     6.850     5.966    70.427
1490.60     6.924     5.669    69.207
1490.80     6.679     5.322    70.122
1491.00     6.385     5.025    71.341
1491.20     6.606     4.777    73.171
1491.40     6.850     5.768    69.512
1491.60     7.095     6.659    67.988
1491.80     7.339     6.511    67.683
1492.00     6.557     5.941    67.683
1492.20     5.847     5.396    67.683
1492.40     5.113     4.827    67.988
1492.60     4.966     4.331    70.122
1492.80     5.064     5.842    73.171
1493.00     5.113     7.103    76.220
1493.20     5.187     7.940    79.268
1493.40     5.113     8.777    82.012
1493.60     4.746     9.520    83.537
1493.80     4.575    10.263    80.183
1494.00     4.648     9.892    71.646
1494.20     4.746     8.366    64.634
1494.40     4.795     6.554    64.024
1494.60     4.869     4.742    67.683
1494.80     5.089     3.489    71.646
1495.00     5.529     2.845    74.390
1495.20     6.018     2.920    76.524
1495.40     6.508     4.406    75.305
1495.60     6.948     5.842    74.390
1495.80     8.318     6.867    72.866
1496.00    10.520     7.893    71.951
1496.20    12.722    10.015    70.427
1496.40    13.578    11.873    77.744
1496.60    14.190    10.139    81.402
1496.80    14.801     8.529    84.756
1497.00    13.578     6.920    88.110
1497.20    12.477     5.433    90.244
1497.40    11.376     7.786    88.415
1497.60    10.346     9.768    85.366
1497.80     9.997    11.625    82.317
1498.00     9.649    10.730    80.183
1498.20     9.301     6.957    81.402
1498.40     8.953     6.214    82.317
1498.60     8.604     5.718    83.232
1498.80     8.256     5.198    83.232
1499.00     7.908     4.703    82.317
1499.20     7.560     4.183    80.183
1499.40     6.606     5.099    78.049
1499.60     5.872     6.065    75.000
1499.80     5.211     5.693    73.476
1500.00     5.431     5.297    75.915
1500.20     5.676     4.926    77.744
1500.40     5.872     4.480    79.268
1500.60     6.092     5.669    80.793
1500.80     6.312     7.105    80.793
1501.00     6.532     7.080    79.573
1501.20     6.752     7.056    78.659
1501.40     6.972     6.796    80.488
1501.60     7.193     6.300    86.280
1501.80     7.413     5.929    97.256
1502.00     7.584     5.310    94.512
1502.20     7.682     7.415    91.463
1502.40     7.780     8.158    88.110
1502.60     7.878     7.167    85.061
1502.80     7.976     6.300    82.012
1503.00     8.073     5.310    81.707
1503.20     7.339     5.310    82.927
1503.40     6.483     6.053    84.146
1503.60     6.728     6.672    84.451
1503.80     7.095     7.291    84.451
1504.00     7.339     7.539    84.146
1504.20     7.339     7.415    83.841
1504.40     7.095     7.539    83.537
1504.60     6.850     8.406    86.585
1504.80     8.807     9.272    89.939
1505.00     9.520    10.139    92.073
1505.20     8.987    10.882    90.549
1505.40     8.454     9.025    89.024
1505.60     7.921     7.415    87.805
1505.80     7.388     5.805    86.585
1506.00     7.095     4.567    85.366
1506.20     6.777     5.929    83.841
1506.40     6.899     7.291    82.317
1506.60     7.021     8.406    82.622
1506.80     7.144     8.136    84.756
1507.00     7.315     7.867    86.890
1507.20     7.437     7.598    88.415
1507.40     7.168     7.328    87.805
1507.60     6.654     7.056    87.195
1507.80     6.459     6.808    86.585
1508.00     6.434     6.585    85.976
1508.20     6.410     6.337    85.671
1508.40     6.361     6.115    85.671
1508.60     6.336     5.867    85.671
1508.80     6.385     5.817    85.976
1509.00     6.434     5.916    85.366
1509.20     6.190     6.015    84.756
