~Version information block
VERS.                            2.0:CWLS Log ASCII Standard-VERSION 2.0
WRAP.                            NO:One line per depth step
~Well information block
# MNEM.UNIT         DATA                       DESCRIPTION OF MNEMONIC
#---------      -------------------           -------------------------------
STRT.M                           370.00: Начальная глубина
STOP.M                          2251.00: Конечная  глубина
STEP.M                             0.20: Шаг квантования по глубине
NULL.                           -999.25: Отсутствие данных
WELL.                                11: Скважина
FLD .                              KURK: Площадь
LOC .                                  : Место
STAT.                                  : Область
CTRY.                            RUSSIA: Страна
COMP.                                  : Заказчик
SRVC.                                  : Исполнитель
DATE.                        18.12.1984: Дата каротажа
METD.                              BKZ5: Метод
SCAL.                               500: Масштаб по глубине
UWI. M38076KURK11S1:
#
~Parameter information block
#MNEM   .UNIT           VALUE                 DESCRIPTION OF MNEMONIC
#------------------    --------               ---------------------------
CATEGORY.                               -999.25:"Категория скважины"
DATED   .DD.MM.YYYY                     -999.25:"Дата разбуривания интервала (ДД.ММ.ГГГГ)"
FACE    .m                                 2251:"Глубина пробуренного забоя скважины(м)"
CBDA    .m                              -999.25:"Глубина текущего забоя скважины (м)"
ALT     .m                              -999.25:"Альтитуда стола ротора(m)"
SCD     .mm                               215.9:"Номинальный диаметр скважины (мм)"
CCD     .mm                             -999.25:"Диаметр кондуктора (мм)"
CD      .mm                             -999.25:"Диаметр колонны (мм)"
DCC     .m                              -999.25:"Глубина спуска кондуктора (м)"
CDP     .m                              -999.25:"Глубина спуска колонны (м)"
DFT     .                               -999.25:"Тип промывочной жидкости в скважине"
DFD     .g/s3                               1.2:"Плотность промывочной жидкости (г/см3)"
DFR     .Omm                            -999.25:"Сопротивление бурового раствора (Омм)"
RMF     .Omm                            -999.25:"Сопротивление фильтра промывочной жидкости (Омм)"
DFL     .sm3/30min                            9:"Водоотдача бурового раствора (см3/30мин)"
DFSLT   .g/l                            -999.25:"Минерализация промывачной жидкости (г/л)"
DFV     .s                                   35:"Вязкость бурового раствора (сек)"
RAUGK   .imp/min                        -999.25:"Коэффициент перехода ГК (имп/мкР/ч)"
RAU     .imp/min                        -999.25:"Коэффициент перехода НГК (усл.ед/имп/мин)"
RAUB    .imp/min                        -999.25:"Коэффициент перехода для большого зонда ННК (усл.ед/имп/мин)"
RAUS    .imp/min                        -999.25:"Коэффициент перехода для малого зонда ННК (усл.ед/имп/мин)"
TDLB    .imp/min                        -999.25:"Счет в эталонировочном устройстве ИННК - большой зонд (имп/мин)"
TDLS    .imp/min                        -999.25:"Счет в эталонировочном устройстве ИННК - малый зонд (имп/мин)"
TPNLGK  .s                              -999.25:"Постоянная времени ГК (сек)"
TPNLNK  .s                              -999.25:"Постоянная времени ННК (сек)"
TPNLNGK .s                              -999.25:"Постоянная времени НГК (сек)"
TPNLGGK .s                              -999.25:"Постоянная времени ГГК (сек)"
TPNLINNK.s                              -999.25:"Постоянная времени ИННК (сек)"
KNGK    .s                              -999.25:"КNGK"
SPEED   .m/h                            -999.25:"Скорость записи (м/ч)"
#
~Curve information block
DEPT.M                                  :
N11M05A.Omm                            : потенциал-зонд N11.0M0.5A,Ом.м
A2M05N.Omm                             : Подошвенный градиент-зонд A2.0M0.5N,Омм
PS.mV                                  : Потенциал самопроизвольной поляризации,мВ
~Other information block
#MNEM.UNIT                VALUE                 DESCRIPTION OF MNEMONIC
#-----------------      ------------          -------------------------------------------
TYPE.                                       Raw:"Тип данных"
TYPE1.                                      ost:"Тип записи"
KOG.                                    -999.25:"Тип кожуха прибора"
SRVC5.                                  -999.25:"Фамилия оператора каротажной партии"
NAME.                                  Bakanova:"Фамилия подготовившего las файл"
SRVC2.                                Geoproekt:"Предприятие, подготовившее LAS файл"
~A DEPT.M  N11M05A    A2M05N      PS
# ...
1973.60    92.355   131.811   110.061
1973.80    94.801   138.622   110.061
1974.00    94.190   145.433   110.366
1974.20    91.131   152.864   110.061
1974.40    88.073   159.675   110.061
1974.60    84.404   166.486   110.061
1974.80    80.734   173.916   110.671
1975.00    77.676   180.728   110.671
1975.20    74.006   187.539   111.280
1975.40    70.948   193.731   111.280
1975.60    67.278   171.440   111.585
1975.80    64.220   151.625   112.195
1976.00    61.162   131.811   112.500
1976.20    57.492   119.427   112.805
1976.40    54.434   114.474   113.110
1976.60    50.765   110.139   113.415
1976.80    51.376   105.805   113.720
1977.00    51.988   100.851   114.024
1977.20    52.599    97.136   114.329
1977.40    53.211    94.040   114.634
1977.60    53.823    90.944   114.939
1977.80    54.434    88.467   115.244
1978.00    54.434    85.372   115.549
1978.20    54.434    82.895   116.159
1978.40    53.211    79.799   116.159
1978.60    51.376    77.322   116.159
1978.80    50.153    74.226   116.159
1979.00    48.318    71.749   115.854
1979.20    47.095    71.130   115.854
1979.40    45.260    74.226   115.549
1979.60    45.872    76.084   114.939
1979.80    46.483    79.180   114.329
1980.00    47.095    82.276   113.720
1980.20    48.318    84.752   112.805
1980.40    48.930    87.229   112.195
1980.60    49.541    85.991   111.280
1980.80    50.153    79.180   110.061
1981.00    49.113    82.895   108.841
1981.20    47.034    85.991   108.232
1981.40    44.954    89.706   107.622
1981.60    42.875    54.412   107.012
1981.80    40.795    61.223   106.707
1982.00    38.716    68.653   106.402
1982.20    36.453    76.084   106.402
1982.40    35.229    84.752   106.098
1982.60    33.884    72.988   106.098
1982.80    32.661    58.746   105.793
1983.00    31.315    53.173   105.793
1983.20    30.092    60.604   105.793
1983.40    28.869    68.034   105.793
1983.60    27.401    75.464   105.793
1983.80    26.300    64.938   105.793
1984.00    24.954    40.789   105.793
1984.20    25.566    44.505   105.793
1984.40    26.055    43.885   105.488
1984.60    26.544    35.836   105.183
1984.80    27.034    28.406   105.183
1985.00    27.401    24.690   104.878
1985.20    27.278    30.882   104.573
1985.40    27.890    37.074   104.573
1985.60    28.869    43.266   103.963
1985.80    29.847    40.170   103.049
1986.00    30.948    37.074   102.134
1986.20    32.049    33.359   101.220
1986.40    29.725    30.882   100.305
1986.60    27.401    37.074    98.476
1986.80    24.954    42.028    94.817
1987.00    22.508    47.601    89.939
1987.20    20.061    52.554    85.671
1987.40    17.615    58.127    82.012
1987.60    15.168    45.712    78.963
1987.80    13.700    33.297    75.915
1988.00    12.722    27.477    73.476
1988.20    11.621    22.152    71.646
1988.40    10.642    16.950    70.732
1988.60    11.131    12.492    71.951
1988.80    11.743    18.808    73.171
1989.00    12.232    24.257    74.390
1989.20    12.722    29.830    75.305
1989.40    13.333    29.087    76.524
1989.60    13.823    18.932    77.744
1989.80    14.312    19.799    78.659
1990.00    14.924    20.666    77.744
1990.20    15.168    21.409    76.524
1990.40    15.046    18.437    73.476
1990.60    14.924    16.207    67.378
1990.80    14.276    13.978    58.537
1991.00    12.982    11.502    50.305
1991.20    11.688    18.189    43.293
1991.40    10.393    31.068    37.195
1991.60     9.099    32.059    30.793
1991.80     7.804    32.307    25.000
1992.00     6.703    27.353    15.854
1992.20     5.847    20.913     6.098
1992.40     4.991    14.598     3.963
1992.60     4.550     9.676     2.439
1992.80     5.089     6.768     0.305
1993.00     5.651     3.861     0.305
1993.20     6.190     3.192     0.610
1993.40     6.728     3.390     0.610
1993.60     7.291     3.539     0.915
1993.80     7.731     3.737     0.915
1994.00     6.850     3.885     1.220
1994.20     6.092     4.059     0.915
1994.40     5.358     0.889     0.610
1994.60     4.624     0.789     0.305
1994.80     3.865     0.666     0.610
1995.00     3.131     0.542     0.610
1995.20     2.740     0.492     0.915
1995.40     2.422     0.517     1.220
1995.60     2.128     0.542     1.524
1995.80     1.859     0.567     2.134
1996.00     1.957     0.591     2.744
1996.20     2.031     0.616     3.354
1996.40     2.080     0.591     3.659
1996.60     2.153     0.542     2.744
1996.80     2.226     0.467     2.439
1997.00     2.202     0.418     1.524
1997.20     2.202     0.368     0.915
1997.40     2.177     0.344     0.610
1997.60     2.153     0.344     0.610
1997.80     2.251     0.319     0.610
1998.00     2.446     0.319     0.610
1998.20     2.593     0.294     0.610
1998.40     2.495     0.294     0.610
1998.60     2.398     0.269     0.915
1998.80     2.300     0.393     0.915
1999.00     2.202     0.567     1.220
1999.20     3.278     0.765     1.829
1999.40     4.917     0.963     2.439
1999.60     7.055     1.136     3.659
1999.80     8.884     1.310    22.256
2000.00    10.713     1.458    57.317
2000.20    12.541     1.334    70.122
2000.40    13.700     1.260    79.268
2000.60    14.312     1.186    83.232
2000.80    14.679     1.087    85.671
2001.00    15.535     1.433    88.110
2001.20    16.636     1.954    90.549
2001.40    17.737     2.474    92.988
2001.60    32.905     2.969    95.732
2001.80    34.712     3.489    97.256
2002.00    36.518     4.009    99.085
2002.20    38.325     4.529   100.610
2002.40    40.132     5.000   102.439
2002.60    41.938     8.158   104.268
2002.80    43.745    10.759   106.098
2003.00    44.648    13.111   108.232
2003.20    44.037    15.341   109.756
2003.40    42.813    17.570   111.585
2003.60    42.202    19.799   111.890
2003.80    40.367    21.904   112.805
2004.00    39.755    24.133   114.024
2004.20    38.532    26.486   114.939
2004.40    37.920    40.789   115.549
2004.60    36.697    45.743   115.854
2004.80    36.086    50.697   116.768
2005.00    34.862    56.889   117.073
2005.20    33.639    53.793   117.683
2005.40    32.416    50.697   118.293
2005.60    31.193    47.601   118.902
2005.80    30.581    43.266   119.207
2006.00    32.416    40.170   119.207
2006.20    33.639    37.074   119.207
2006.40    36.086    35.217   119.207
2006.60    37.309    35.836   118.902
2006.80    39.144    39.551   118.902
2007.00    38.471    46.362   119.207
2007.20    37.798    53.173   118.902
2007.40    34.006    51.935   118.293
2007.60    31.560    48.220   117.988
2007.80    28.869    45.124   117.378
2008.00    27.890    40.789   116.768
2008.20    27.401    39.427   116.159
2008.40    26.789    38.065   115.549
2008.60    26.300    36.703   115.854
2008.80    25.810    35.341   114.329
2009.00    25.199    33.916   112.805
2009.20    24.587    32.554   111.585
2009.40    23.853    31.316   109.756
2009.60    22.997    29.954   108.232
2009.80    22.141    28.591   106.707
2010.00    21.284    27.229   105.488
2010.20    20.428    25.867   106.098
2010.40    20.795    27.972   106.707
2010.60    21.651    27.105   107.622
2010.80    22.385    25.124   108.537
2011.00    23.242    26.115   109.146
2011.20    24.098    27.477   110.061
2011.40    24.832    26.238   110.671
2011.60    25.566    24.628   110.976
2011.80    26.422    23.142   111.280
2012.00    27.034    22.152   111.280
2012.20    27.401    23.885   110.671
2012.40    26.544    27.972   110.366
2012.60    25.321    34.412   109.451
2012.80    23.731    34.288   108.537
2013.00    22.508    32.926   106.707
2013.20    21.407    31.192   104.878
2013.40    20.428    28.839   103.049
2013.60    19.694    26.362   101.220
2013.80    19.083    24.505    99.695
2014.00    18.716    23.019    98.780
2014.20    18.349    21.780    99.085
2014.40    18.104    20.666    99.695
2014.60    17.982    19.923   100.610
2014.80    18.226    20.170   101.220
2015.00    18.593    20.789   101.829
2015.20    19.327    21.656   102.134
2015.40    20.183    22.647   102.134
2015.60    21.529    23.885   103.049
