~Version information block
VERS.                            2.0:CWLS Log ASCII Standard-VERSION 2.0
WRAP.                            NO:One line per depth step
~Well information block
# MNEM.UNIT         DATA                       DESCRIPTION OF MNEMONIC
#---------      -------------------           -------------------------------
STRT.M                           370.00: Начальная глубина
STOP.M                          2251.00: Конечная  глубина
STEP.M                             0.20: Шаг квантования по глубине
NULL.                           -999.25: Отсутствие данных
WELL.                                11: Скважина
FLD .                              KURK: Площадь
LOC .                                  : Место
STAT.                                  : Область
CTRY.                            RUSSIA: Страна
COMP.                                  : Заказчик
SRVC.                                  : Исполнитель
DATE.                        18.12.1984: Дата каротажа
METD.                              BKZ5: Метод
SCAL.                               500: Масштаб по глубине
UWI. M38076KURK11S1:
#
~Parameter information block
#MNEM   .UNIT           VALUE                 DESCRIPTION OF MNEMONIC
#------------------    --------               ---------------------------
CATEGORY.                               -999.25:"Категория скважины"
DATED   .DD.MM.YYYY                     -999.25:"Дата разбуривания интервала (ДД.ММ.ГГГГ)"
FACE    .m                                 2251:"Глубина пробуренного забоя скважины(м)"
CBDA    .m                              -999.25:"Глубина текущего забоя скважины (м)"
ALT     .m                              -999.25:"Альтитуда стола ротора(m)"
SCD     .mm                               215.9:"Номинальный диаметр скважины (мм)"
CCD     .mm                             -999.25:"Диаметр кондуктора (мм)"
CD      .mm                             -999.25:"Диаметр колонны (мм)"
DCC     .m                              -999.25:"Глубина спуска кондуктора (м)"
CDP     .m                              -999.25:"Глубина спуска колонны (м)"
DFT     .                               -999.25:"Тип промывочной жидкости в скважине"
DFD     .g/s3                               1.2:"Плотность промывочной жидкости (г/см3)"
DFR     .Omm                            -999.25:"Сопротивление бурового раствора (Омм)"
RMF     .Omm                            -999.25:"Сопротивление фильтра промывочной жидкости (Омм)"
DFL     .sm3/30min                            9:"Водоотдача бурового раствора (см3/30мин)"
DFSLT   .g/l                            -999.25:"Минерализация промывачной жидкости (г/л)"
DFV     .s                                   35:"Вязкость бурового раствора (сек)"
RAUGK   .imp/min                        -999.25:"Коэффициент перехода ГК (имп/мкР/ч)"
RAU     .imp/min                        -999.25:"Коэффициент перехода НГК (усл.ед/имп/мин)"
RAUB    .imp/min                        -999.25:"Коэффициент перехода для большого зонда ННК (усл.ед/имп/мин)"
RAUS    .imp/min                        -999.25:"Коэффициент перехода для малого зонда ННК (усл.ед/имп/мин)"
TDLB    .imp/min                        -999.25:"Счет в эталонировочном устройстве ИННК - большой зонд (имп/мин)"
TDLS    .imp/min                        -999.25:"Счет в эталонировочном устройстве ИННК - малый зонд (имп/мин)"
TPNLGK  .s                              -999.25:"Постоянная времени ГК (сек)"
TPNLNK  .s                              -999.25:"Постоянная времени ННК (сек)"
TPNLNGK .s                              -999.25:"Постоянная времени НГК (сек)"
TPNLGGK .s                              -999.25:"Постоянная времени ГГК (сек)"
TPNLINNK.s                              -999.25:"Постоянная времени ИННК (сек)"
KNGK    .s                              -999.25:"КNGK"
SPEED   .m/h                            -999.25:"Скорость записи (м/ч)"
#
~Curve information block
DEPT.M                                  :
N11M05A.Omm                            : потенциал-зонд N11.0M0.5A,Ом.м
A2M05N.Omm                             : Подошвенный градиент-зонд A2.0M0.5N,Омм
PS.mV                                  : Потенциал самопроизвольной поляризации,мВ
~Other information block
#MNEM.UNIT                VALUE                 DESCRIPTION OF MNEMONIC
#-----------------      ------------          -------------------------------------------
TYPE.                                       Raw:"Тип данных"
TYPE1.                                      ost:"Тип записи"
KOG.                                    -999.25:"Тип кожуха прибора"
SRVC5.                                  -999.25:"Фамилия оператора каротажной партии"
NAME.                                  Bakanova:"Фамилия подготовившего las файл"
SRVC2.                                Geoproekt:"Предприятие, подготовившее LAS файл"
~A DEPT.M  N11M05A    A2M05N      PS
# ...
1847.00    11.865    11.254   119.512
1847.20    12.110    13.607   120.122
1847.40    12.844    15.960   121.037
1847.60    13.700    18.808   121.646
1847.80    14.434    18.065   122.256
1848.00    15.413    17.074   122.256
1848.20    16.636    16.207   121.341
1848.40    17.492    15.217   120.122
1848.60    18.349    14.226   118.598
1848.80    18.716    13.235   117.378
1849.00    19.205    12.245   116.768
1849.20    15.046    11.378   116.463
1849.40    11.988    16.950   116.463
1849.60    11.498    22.152   114.939
1849.80    11.254    17.260   109.451
1850.00    12.232    12.368   104.573
1850.20    13.211     7.477   100.000
1850.40    14.312     6.387    95.732
1850.60    15.291     5.545    92.988
1850.80    16.147     4.604    90.549
1851.00    15.780     5.272    88.415
1851.20    14.801     6.065    86.890
1851.40    13.823     6.808    87.500
1851.60    12.844     7.452    89.634
1851.80    11.865     7.370    92.378
1852.00    10.765     7.289    95.427
1852.20     9.908     7.207    99.085
1852.40     8.930     7.125   102.134
1852.60     8.073     7.043   104.878
1852.80     6.972    10.015   106.402
1853.00     5.872    12.368   106.707
1853.20     5.627    11.006   105.488
1853.40     5.994     8.034   104.268
1853.60     6.850     8.282   103.049
1853.80     8.807    10.139   102.439
1854.00     9.908    11.997   103.049
1854.20    11.131    11.749   103.963
1854.40    11.376     9.396   104.268
1854.60    10.765     9.396   102.134
1854.80     9.786    11.502    99.390
1855.00     8.930    10.882    96.646
1855.20     8.563     8.158    94.207
1855.40     8.930     7.415    92.683
1855.60     9.522     7.418    91.768
1855.80     9.238     7.420    92.378
1856.00     8.954     7.423    93.598
1856.20     8.670     7.426    94.512
1856.40     8.387     7.130    95.427
1856.60     8.103     6.759    95.427
1856.80     7.819     6.362    94.207
1857.00     7.535     5.991    92.988
1857.20     6.654     5.594    92.073
1857.40     6.067     5.223    92.073
1857.60     5.505     4.851    92.073
1857.80     4.893     4.455    92.378
1858.00     4.942     4.084    91.159
1858.20     5.187     3.712    88.415
1858.40     5.431     3.316    86.585
1858.60     5.700     3.836    85.976
1858.80     5.945     5.421    87.500
1859.00     5.749     7.031    90.244
1859.20     5.260     7.601    92.683
1859.40     4.771     7.180    95.122
1859.60     5.138     6.759    96.951
1859.80     5.505     6.313    99.085
1860.00     5.896     5.867   101.220
1860.20     6.287     5.446   102.439
1860.40     6.679     5.000   101.524
1860.60     7.070     4.554    98.171
1860.80     7.462     4.207    94.817
1861.00     7.462     3.910    89.939
1861.20     7.119     3.613    82.927
1861.40     6.752     3.836    80.183
1861.60     6.385     4.034    81.402
1861.80     6.043     4.282    82.927
1862.00     5.651     4.356    84.451
1862.20     5.309     4.133    85.976
1862.40     4.942     4.034    86.890
1862.60     4.575     4.133    86.890
1862.80     4.208     4.282    87.805
1863.00     3.841     4.108    89.634
1863.20     3.425     3.935    91.768
1863.40     3.474     3.737    94.207
1863.60     3.547     3.539    96.341
1863.80     3.596     3.365    98.476
1864.00     3.645     3.167   100.305
1864.20     3.719     2.994   101.220
1864.40     3.768     2.796   100.915
1864.60     3.841     2.598    99.695
1864.80     3.890     2.498    98.476
1865.00     3.890     2.399    97.866
1865.20     3.865     2.399    98.171
1865.40     3.865     2.424    99.085
1865.60     3.890     2.647   100.000
1865.80     4.012     7.526   101.220
1866.00     4.159     7.452   102.744
1866.20     4.281     7.279    99.695
1866.40     4.673     7.080    94.207
1866.60     5.211     6.858    89.024
1866.80     5.725     6.635    84.756
1867.00     6.263     6.288    81.707
1867.20     6.801     5.916    80.488
1867.40     7.217     5.570    80.488
1867.60     7.299     5.198    81.402
1867.80     7.380     4.876    82.927
1868.00     7.462     4.554    85.061
1868.20     7.584     4.232    87.500
1868.40     7.829     3.885    90.244
1868.60     7.829     3.663    93.293
1868.80     8.073     3.613    95.122
1869.00     8.196     7.328    94.512
1869.20     8.318     7.526    89.634
1869.40     8.563     7.749    78.659
1869.60     8.563     7.848    71.646
1869.80     8.807     7.848    75.305
1870.00     8.930     7.848    79.878
1870.20     9.052     7.402    83.841
1870.40     8.772     6.833    86.280
1870.60     7.969     6.288    86.890
1870.80     7.165     5.743    83.537
1871.00     6.361     5.297    78.354
1871.20     5.774     5.000    69.207
1871.40     5.211     4.728    55.488
1871.60     4.624     4.430    44.207
1871.80     3.939     4.406    36.585
1872.00     4.575     4.628    32.622
1872.20     5.309     4.827    47.866
1872.40     6.067     5.099    56.098
1872.60     6.826     4.653    62.195
1872.80     7.584     4.059    66.463
1873.00     7.095     3.514    65.244
1873.20     6.581     2.944    61.280
1873.40     6.067     2.375    56.098
1873.60     5.578     1.731    52.744
1873.80     5.040     1.755    50.610
1874.00     4.550     1.755    46.951
1874.20     4.012     1.805    41.768
1874.40     3.498     1.755    35.976
1874.60     2.911     1.087    29.573
1874.80     3.083     1.186    24.085
1875.00     3.303     1.285    21.341
1875.20     3.523     1.433    20.122
1875.40     3.743     1.557    22.561
1875.60     3.939     1.533    25.000
1875.80     4.183     1.285    28.963
1876.00     3.645     1.037    27.744
1876.20     3.205     0.765    26.524
1876.40     2.838     0.517    25.305
1876.60     2.667     0.269    24.390
1876.80     2.495     0.344    25.000
1877.00     2.300     0.591    28.354
1877.20     2.104     0.938    32.012
1877.40     1.933     0.864    39.634
1877.60     1.517     0.765    38.415
1877.80     2.936     0.666    36.890
1878.00     4.306     0.591    35.671
1878.20     3.939     0.492    34.451
1878.40     3.498     0.393    32.927
1878.60     3.083     0.319    31.707
1878.80     2.618     0.220    30.183
1879.00     2.202     0.146    29.268
1879.20     1.761     0.245    31.098
1879.40     1.468     0.368    35.671
1879.60     1.492     0.963    41.768
1879.80     1.492     1.235    49.085
1880.00     2.667     1.186    56.707
1880.20     4.183     1.136    63.110
1880.40     5.113     1.087    68.902
1880.60     5.480     1.805    74.390
1880.80     5.847     2.994    79.878
1881.00     6.214     4.307    84.146
1881.20     6.557     5.520    88.415
1881.40     6.948     6.387    92.073
1881.60     7.291     7.408    94.207
1881.80     7.633     8.360    95.732
1882.00     7.657     9.311    96.646
1882.20     7.682    10.263    97.866
1882.40     7.560    12.121    99.085
1882.60     7.462    12.492   100.000
1882.80     7.535    12.121   101.220
1883.00     7.584    11.749   103.049
1883.20     7.657    11.502   104.573
1883.40     9.187    11.006   105.793
1883.60    12.196    11.625   106.707
1883.80    13.456    13.111   107.012
1884.00    12.844    14.598   106.402
1884.20    13.700    16.084   105.793
1884.40    14.679    17.446   103.963
1884.60    14.679    18.932   102.439
1884.80    14.067    20.418   101.524
1885.00    13.333    21.780   101.829
1885.20    12.722    20.418   102.744
1885.40    12.599    19.180   103.659
1885.60    12.844    17.817   103.354
1885.80    12.966    16.703   102.439
1886.00    13.333    15.341   102.134
1886.20    13.456    14.102   101.524
1886.40    13.700    12.864   101.829
1886.60    13.333    11.625   102.439
1886.80    13.089    10.387   103.049
1887.00    12.722    10.139   103.049
1887.20    12.355    10.015   102.744
1887.40    12.599     9.768   102.439
1887.60    12.599    11.749   102.134
1887.80    12.477    13.854   102.134
1888.00    12.110    16.455   102.744
1888.20    11.865    15.464   103.659
1888.40    12.110    14.102   105.183
1888.60    13.333    13.607   106.402
1888.80    14.557    15.217   107.012
1889.00    15.046    16.703   106.707
