~Version information block
VERS.                            2.0:CWLS Log ASCII Standard-VERSION 2.0
WRAP.                            NO:One line per depth step
~Well information block
# MNEM.UNIT         DATA                       DESCRIPTION OF MNEMONIC
#---------      -------------------           -------------------------------
STRT.M                           370.00: Начальная глубина
STOP.M                          2251.00: Конечная  глубина
STEP.M                             0.20: Шаг квантования по глубине
NULL.                           -999.25: Отсутствие данных
WELL.                                11: Скважина
FLD .                              KURK: Площадь
LOC .                                  : Место
STAT.                                  : Область
CTRY.                            RUSSIA: Страна
COMP.                                  : Заказчик
SRVC.                                  : Исполнитель
DATE.                        18.12.1984: Дата каротажа
METD.                              BKZ5: Метод
SCAL.                               500: Масштаб по глубине
UWI. M38076KURK11S1:
#
~Parameter information block
#MNEM   .UNIT           VALUE                 DESCRIPTION OF MNEMONIC
#------------------    --------               ---------------------------
CATEGORY.                               -999.25:"Категория скважины"
DATED   .DD.MM.YYYY                     -999.25:"Дата разбуривания интервала (ДД.ММ.ГГГГ)"
FACE    .m                                 2251:"Глубина пробуренного забоя скважины(м)"
CBDA    .m                              -999.25:"Глубина текущего забоя скважины (м)"
ALT     .m                              -999.25:"Альтитуда стола ротора(m)"
SCD     .mm                               215.9:"Номинальный диаметр скважины (мм)"
CCD     .mm                             -999.25:"Диаметр кондуктора (мм)"
CD      .mm                             -999.25:"Диаметр колонны (мм)"
DCC     .m                              -999.25:"Глубина спуска кондуктора (м)"
CDP     .m                              -999.25:"Глубина спуска колонны (м)"
DFT     .                               -999.25:"Тип промывочной жидкости в скважине"
DFD     .g/s3                               1.2:"Плотность промывочной жидкости (г/см3)"
DFR     .Omm                            -999.25:"Сопротивление бурового раствора (Омм)"
RMF     .Omm                            -999.25:"Сопротивление фильтра промывочной жидкости (Омм)"
DFL     .sm3/30min                            9:"Водоотдача бурового раствора (см3/30мин)"
DFSLT   .g/l                            -999.25:"Минерализация промывачной жидкости (г/л)"
DFV     .s                                   35:"Вязкость бурового раствора (сек)"
RAUGK   .imp/min                        -999.25:"Коэффициент перехода ГК (имп/мкР/ч)"
RAU     .imp/min                        -999.25:"Коэффициент перехода НГК (усл.ед/имп/мин)"
RAUB    .imp/min                        -999.25:"Коэффициент перехода для большого зонда ННК (усл.ед/имп/мин)"
RAUS    .imp/min                        -999.25:"Коэффициент перехода для малого зонда ННК (усл.ед/имп/мин)"
TDLB    .imp/min                        -999.25:"Счет в эталонировочном устройстве ИННК - большой зонд (имп/мин)"
TDLS    .imp/min                        -999.25:"Счет в эталонировочном устройстве ИННК - малый зонд (имп/мин)"
TPNLGK  .s                              -999.25:"Постоянная времени ГК (сек)"
TPNLNK  .s                              -999.25:"Постоянная времени ННК (сек)"
TPNLNGK .s                              -999.25:"Постоянная времени НГК (сек)"
TPNLGGK .s                              -999.25:"Постоянная времени ГГК (сек)"
TPNLINNK.s                              -999.25:"Постоянная времени ИННК (сек)"
KNGK    .s                              -999.25:"КNGK"
SPEED   .m/h                            -999.25:"Скорость записи (м/ч)"
#
~Curve information block
DEPT.M                                  :
N11M05A.Omm                            : потенциал-зонд N11.0M0.5A,Ом.м
A2M05N.Omm                             : Подошвенный градиент-зонд A2.0M0.5N,Омм
PS.mV                                  : Потенциал самопроизвольной поляризации,мВ
~Other information block
#MNEM.UNIT                VALUE                 DESCRIPTION OF MNEMONIC
#-----------------      ------------          -------------------------------------------
TYPE.                                       Raw:"Тип данных"
TYPE1.                                      ost:"Тип записи"
KOG.                                    -999.25:"Тип кожуха прибора"
SRVC5.                                  -999.25:"Фамилия оператора каротажной партии"
NAME.                                  Bakanova:"Фамилия подготовившего las файл"
SRVC2.                                Geoproekt:"Предприятие, подготовившее LAS файл"
~A DEPT.M  N11M05A    A2M05N      PS
# ...
1003.00    33.028    51.935    49.390
1003.20    40.367    64.319    49.085
1003.40    44.648    73.607    49.390
1003.60    50.153    82.895    49.695
1003.80    55.046    91.563    50.000
1004.00    59.939   101.471    50.305
1004.20    65.443   110.759    51.220
1004.40    71.560   102.709    51.829
1004.60    77.064    94.040    52.744
1004.80    80.122    85.372    53.659
1005.00    76.453    76.703    54.268
1005.20    63.609    68.034    55.183
1005.40    55.657    59.365    55.793
1005.60    49.541    51.316    57.012
1005.80    43.425    42.647    58.232
1006.00    37.920    32.121    58.537
1006.20    31.804    38.313    58.232
1006.40    31.804    45.124    57.622
1006.60    35.474    52.554    57.012
1006.80    39.144    59.985    56.098
1007.00    43.425    66.796    55.183
1007.20    46.483    66.796    54.573
1007.40    50.153    63.080    53.963
1007.60    54.434    59.985    53.963
1007.80    58.104    66.176    53.659
1008.00    56.269    70.511    53.659
1008.20    54.434    74.845    53.354
1008.40    51.988    63.700    53.354
1008.60    50.153    55.650    53.354
1008.80    48.318    57.508    53.659
1009.00    46.483    57.508    54.268
1009.20    44.037    53.173    54.878
1009.40    42.202    49.458    55.488
1009.60    40.367    44.505    55.793
1009.80    38.532    40.789    56.098
1010.00    36.697    35.836    56.098
1010.20    34.251    38.932    55.488
1010.40    32.416    40.789    54.878
1010.60    31.804    42.028    54.268
1010.80    31.804    45.743    53.963
1011.00    33.028    47.601    53.659
1011.20    33.028    46.362    53.659
1011.40    34.251    45.124    53.963
1011.60    34.862    43.885    54.268
1011.80    34.862    43.885    54.268
1012.00    36.086    45.743    54.878
1012.20    37.309    46.981    54.878
1012.40    37.309    48.839    55.183
1012.60    38.532    46.362    55.183
1012.80    39.144    40.170    55.183
1013.00    39.144    33.359    54.878
1013.20    37.920    30.263    54.573
1013.40    36.697    33.359    54.268
1013.60    35.474    36.455    53.963
1013.80    34.251    39.551    53.963
1014.00    33.639    40.789    53.354
1014.20    31.804    41.409    53.354
1014.40    31.193    41.409    52.744
1014.60    29.969    41.409    52.439
1014.80    30.948    44.505    52.439
1015.00    31.927    48.220    52.134
1015.20    32.905    52.554    52.134
1015.40    33.884    55.650    52.134
1015.60    34.862    53.793    52.744
1015.80    35.841    48.220    53.049
1016.00    36.820    43.266    53.659
1016.20    35.229    42.028    54.268
1016.40    33.761    41.409    54.573
1016.60    32.049    40.789    54.573
1016.80    30.459    39.551    54.573
1017.00    28.869    37.074    54.573
1017.20    27.278    33.359    54.573
1017.40    25.810    30.263    54.573
1017.60    24.098    27.167    54.878
1017.80    26.055    23.452    55.488
1018.00    28.012    25.929    56.098
1018.20    29.969    38.932    57.012
1018.40    32.049    55.031    57.927
1018.60    34.006    51.935    58.841
1018.80    35.963    48.839    60.366
1019.00    37.920    45.124    61.890
1019.20    38.410    42.028    64.024
1019.40    38.899    55.031    65.854
1019.60    40.979    66.796    67.378
1019.80    44.037    77.941    68.293
1020.00    48.318    77.172    67.073
1020.20    51.376    63.249    64.939
1020.40    43.425    49.326    62.805
1020.60    39.755    35.402    60.976
1020.80    36.086    33.050    59.451
1021.00    33.884    30.820    58.537
1021.20    32.049    28.467    58.232
1021.40    30.214    26.486    58.232
1021.60    28.502    27.724    58.841
1021.80    26.789    28.715    59.146
1022.00    24.832    29.830    60.061
1022.20    23.119    30.944    59.451
1022.40    23.731    31.935    60.061
1022.60    25.076    32.307    58.841
1022.80    26.422    31.068    58.537
1023.00    27.890    29.830    57.927
1023.20    29.358    28.467    57.317
1023.40    30.948    27.229    56.707
1023.60    30.092    25.991    56.402
1023.80    28.991    24.628    55.793
1024.00    27.890    33.173    57.317
1024.20    28.379    32.183    57.622
1024.40    29.480    31.563    58.537
1024.60    30.581    30.820    59.756
1024.80    30.948    36.765    60.671
1025.00    30.459    36.393    61.890
1025.20    29.969    36.146    63.110
1025.40    29.847    36.022    63.110
1025.60    30.826    35.898    61.890
1025.80    31.682    39.118    60.976
1026.00    32.661    39.489    59.451
1026.20    33.517    39.737    58.232
1026.40    34.373    38.994    57.012
1026.60    35.352    35.898    56.098
1026.80    36.330    32.802    55.793
1027.00    35.963    29.706    56.707
1027.20    34.006    26.610    58.232
1027.40    31.927    23.514    60.061
1027.60    29.847    19.551    60.061
1027.80    27.890    22.523    61.280
1028.00    25.933    26.486    58.537
1028.20    23.853    30.449    57.927
1028.40    21.896    34.288    57.012
1028.60    26.667    37.879    56.098
1028.80    36.269    37.508    55.183
1029.00    37.370    37.260    54.268
1029.20    38.471    37.384    53.659
1029.40    39.572    38.127    52.439
1029.60    40.673    38.994    52.134
1029.80    41.774    35.248    52.439
1030.00    42.875    31.502    53.049
1030.20    46.483    37.074    53.963
1030.40    50.765    40.789    55.488
1030.60    53.211    42.647    56.707
1030.80    49.541    39.551    57.927
1031.00    42.813    35.217    58.537
1031.20    33.028    32.121    58.841
1031.40    27.401    28.406    58.537
1031.60    26.177    27.167    58.232
1031.80    24.832    30.882    57.927
1032.00    23.731    34.598    57.012
1032.20    26.789    38.313    56.098
1032.40    29.235    41.409    55.793
1032.60    31.682    43.885    55.488
1032.80    34.128    42.028    54.878
1033.00    36.575    39.551    56.098
1033.20    39.511    37.694    57.012
1033.40    36.942    37.549    56.402
1033.60    33.639    37.405    55.488
1033.80    30.214    37.260    54.573
1034.00    27.034    33.050    55.793
1034.20    23.731    29.830    57.317
1034.40    22.752    26.610    58.841
1034.60    21.774    26.238    60.366
1034.80    20.795    27.477    61.585
1035.00    19.694    28.591    63.415
1035.20    18.716    29.954    63.720
1035.40    17.615    31.068    62.805
1035.60    16.881    28.096    61.890
1035.80    18.716    25.124    60.671
1036.00    20.183    25.619    59.756
1036.20    21.651    26.238    58.841
1036.40    23.242    23.142    57.927
1036.60    22.385    19.675    57.012
1036.80    20.795    16.331    56.098
1037.00    19.205    12.864    57.012
1037.20    17.615     9.892    58.232
1037.40    16.024     9.520    59.146
1037.60    14.434     9.396    59.146
1037.80    12.844    12.864    58.537
1038.00    16.269    18.189    58.232
1038.20    19.450    23.514    57.622
1038.40    22.875    28.963    57.317
1038.60    29.235    34.288    57.012
1038.80    36.820    34.659    56.402
1039.00    39.633    38.003    56.098
1039.20    40.122    36.322    55.183
1039.40    40.245    34.642    55.488
1039.60    39.266    32.961    55.488
1039.80    37.554    35.836    56.098
1040.00    34.985    40.789    56.707
1040.20    32.049    45.743    57.622
1040.40    29.235    42.647    58.537
1040.60    27.523    40.170    59.756
1040.80    26.422    35.975    61.280
1041.00    25.443    30.062    63.110
1041.20    24.465    26.238    64.939
1041.40    23.486    24.257    67.378
1041.60    22.385    17.119    70.427
1041.80    21.407     9.981    74.085
1042.00    18.960     5.669    76.524
1042.20    10.316     4.926    79.268
1042.40     5.823     5.198    82.012
1042.60     5.529     5.471    85.366
1042.80     5.235     5.718    88.110
1043.00     4.942     5.966    88.415
1043.20     4.648     5.322    86.585
1043.40     4.330     4.703    84.451
1043.60     4.428     4.108    82.622
1043.80     4.502     3.811    80.793
1044.00     4.599     4.084    79.268
1044.20     4.697     4.356    79.573
1044.40     4.795     4.653    81.707
1044.60     4.893     4.232    83.537
1044.80     4.722     3.786    83.841
1045.00     4.379     3.341    83.841
