~Version information block
VERS.                            2.0:CWLS Log ASCII Standard-VERSION 2.0
WRAP.                            NO:One line per depth step
~Well information block
# MNEM.UNIT         DATA                       DESCRIPTION OF MNEMONIC
#---------      -------------------           -------------------------------
STRT.M                           370.00: Начальная глубина
STOP.M                          2251.00: Конечная  глубина
STEP.M                             0.20: Шаг квантования по глубине
NULL.                           -999.25: Отсутствие данных
WELL.                                11: Скважина
FLD .                              KURK: Площадь
LOC .                                  : Место
STAT.                                  : Область
CTRY.                            RUSSIA: Страна
COMP.                                  : Заказчик
SRVC.                                  : Исполнитель
DATE.                        18.12.1984: Дата каротажа
METD.                              BKZ5: Метод
SCAL.                               500: Масштаб по глубине
UWI. M38076KURK11S1:
#
~Parameter information block
#MNEM   .UNIT           VALUE                 DESCRIPTION OF MNEMONIC
#------------------    --------               ---------------------------
CATEGORY.                               -999.25:"Категория скважины"
DATED   .DD.MM.YYYY                     -999.25:"Дата разбуривания интервала (ДД.ММ.ГГГГ)"
FACE    .m                                 2251:"Глубина пробуренного забоя скважины(м)"
CBDA    .m                              -999.25:"Глубина текущего забоя скважины (м)"
ALT     .m                              -999.25:"Альтитуда стола ротора(m)"
SCD     .mm                               215.9:"Номинальный диаметр скважины (мм)"
CCD     .mm                             -999.25:"Диаметр кондуктора (мм)"
CD      .mm                             -999.25:"Диаметр колонны (мм)"
DCC     .m                              -999.25:"Глубина спуска кондуктора (м)"
CDP     .m                              -999.25:"Глубина спуска колонны (м)"
DFT     .                               -999.25:"Тип промывочной жидкости в скважине"
DFD     .g/s3                               1.2:"Плотность промывочной жидкости (г/см3)"
DFR     .Omm                            -999.25:"Сопротивление бурового раствора (Омм)"
RMF     .Omm                            -999.25:"Сопротивление фильтра промывочной жидкости (Омм)"
DFL     .sm3/30min                            9:"Водоотдача бурового раствора (см3/30мин)"
DFSLT   .g/l                            -999.25:"Минерализация промывачной жидкости (г/л)"
DFV     .s                                   35:"Вязкость бурового раствора (сек)"
RAUGK   .imp/min                        -999.25:"Коэффициент перехода ГК (имп/мкР/ч)"
RAU     .imp/min                        -999.25:"Коэффициент перехода НГК (усл.ед/имп/мин)"
RAUB    .imp/min                        -999.25:"Коэффициент перехода для большого зонда ННК (усл.ед/имп/мин)"
RAUS    .imp/min                        -999.25:"Коэффициент перехода для малого зонда ННК (усл.ед/имп/мин)"
TDLB    .imp/min                        -999.25:"Счет в эталонировочном устройстве ИННК - большой зонд (имп/мин)"
TDLS    .imp/min                        -999.25:"Счет в эталонировочном устройстве ИННК - малый зонд (имп/мин)"
TPNLGK  .s                              -999.25:"Постоянная времени ГК (сек)"
TPNLNK  .s                              -999.25:"Постоянная времени ННК (сек)"
TPNLNGK .s                              -999.25:"Постоянная времени НГК (сек)"
TPNLGGK .s                              -999.25:"Постоянная времени ГГК (сек)"
TPNLINNK.s                              -999.25:"Постоянная времени ИННК (сек)"
KNGK    .s                              -999.25:"КNGK"
SPEED   .m/h                            -999.25:"Скорость записи (м/ч)"
#
~Curve information block
DEPT.M                                  :
N11M05A.Omm                            : потенциал-зонд N11.0M0.5A,Ом.м
A2M05N.Omm                             : Подошвенный градиент-зонд A2.0M0.5N,Омм
PS.mV                                  : Потенциал самопроизвольной поляризации,мВ
~Other information block
#MNEM.UNIT                VALUE                 DESCRIPTION OF MNEMONIC
#-----------------      ------------          -------------------------------------------
TYPE.                                       Raw:"Тип данных"
TYPE1.                                      ost:"Тип записи"
KOG.                                    -999.25:"Тип кожуха прибора"
SRVC5.                                  -999.25:"Фамилия оператора каротажной партии"
NAME.                                  Bakanova:"Фамилия подготовившего las файл"
SRVC2.                                Geoproekt:"Предприятие, подготовившее LAS файл"
~A DEPT.M  N11M05A    A2M05N      PS
# ...
 623.20     8.440     5.594    90.244
 623.40     8.807     5.000    88.415
 623.60     9.297     4.331    86.280
 623.80     9.664     3.638    84.146
 624.00    10.153     3.118    82.927
 624.20     8.671     2.697    85.366
 624.40     7.189     2.399    88.720
 624.60     5.707     2.201    92.378
 624.80     4.526     2.176    95.732
 625.00     4.037     2.325    98.171
 625.20     3.523     2.598    99.695
 625.40     3.009     2.845    99.085
 625.60     2.887     3.118    96.951
 625.80     3.083     3.266    93.293
 626.00     3.303     3.217    89.024
 626.20     3.401     3.118    85.061
 626.40     3.376     2.969    82.012
 626.60     3.327     2.796    79.573
 626.80     3.278     2.672    77.744
 627.00     3.229     2.548    75.610
 627.20     3.401     2.399    73.171
 627.40     3.352     2.276    71.037
 627.60     3.180     2.176    68.902
 627.80     3.009     2.127    66.159
 628.00     2.838     2.127    64.024
 628.20     2.667     2.102    62.500
 628.40     2.618     1.954    62.500
 628.60     2.667     1.830    63.415
 628.80     2.667     1.681    64.939
 629.00     2.716     1.557    67.073
 629.20     2.642     1.409    69.512
 629.40     2.544     1.260    67.683
 629.60     2.446     1.136    61.280
 629.80     2.373     1.111    53.963
 630.00     2.275     1.161    46.341
 630.20     2.153     1.260    41.463
 630.40     2.251     1.409    38.720
 630.60     2.471     1.557    37.805
 630.80     2.716     1.607    38.110
 631.00     2.936     1.384    38.415
 631.20     3.180     1.161    39.024
 631.40     3.401     0.963    39.024
 631.60     3.645     0.765    38.720
 631.80     3.914     0.616    37.195
 632.00     3.670     0.542    37.500
 632.20     3.376     0.591    36.585
 632.40     3.083     0.690    35.671
 632.60     2.789     0.814    33.537
 632.80     2.495     0.938    33.841
 633.00     2.251     1.062    34.146
 633.20     2.300     1.087    35.061
 633.40     2.349     0.988    35.366
 633.60     2.398     0.864    35.061
 633.80     2.446     0.765    34.451
 634.00     2.398     0.740    34.146
 634.20     2.300     0.765    33.232
 634.40     2.177     0.765    32.927
 634.60     2.080     0.740    33.841
 634.80     2.006     0.690    35.061
 635.00     1.908     0.616    35.366
 635.20     1.810     0.517    35.061
 635.40     1.688     0.467    34.756
 635.60     1.590     0.443    34.146
 635.80     1.590     0.467    33.537
 636.00     1.713     0.542    32.622
 636.20     1.859     0.666    32.317
 636.40     1.982     0.789    31.402
 636.60     2.006     0.913    31.402
 636.80     1.835     0.988    31.402
 637.00     1.664     0.988    32.012
 637.20     1.492     0.913    32.927
 637.40     1.810     0.789    33.537
 637.60     2.398     0.690    33.232
 637.80     2.985     0.591    32.927
 638.00     3.572     0.492    32.317
 638.20     4.183     0.393    32.012
 638.40     4.624     0.368    31.402
 638.60     4.135     0.368    31.098
 638.80     3.719     0.443    30.488
 639.00     3.303     0.542    30.488
 639.20     2.887     0.666    30.183
 639.40     2.495     0.690    30.183
 639.60     2.055     0.666    30.183
 639.80     1.664     0.542    30.183
 640.00     1.443     0.418    30.183
 640.20     1.541     0.319    30.183
 640.40     1.639     0.294    30.183
 640.60     1.761     0.344    30.183
 640.80     1.884     0.344    30.793
 641.00     1.810     0.319    31.402
 641.20     1.713     0.294    33.232
 641.40     1.615     0.269    35.671
 641.60     1.541     0.269    38.110
 641.80     1.639     0.368    41.159
 642.00     1.713     0.616    44.817
 642.20     1.688     1.037    49.085
 642.40     1.615     1.508    53.659
 642.60     1.517     1.978    57.012
 642.80     1.443     2.325    60.366
 643.00     2.324     2.573    64.634
 643.20     4.428     2.325    67.683
 643.40     5.040     2.003    66.159
 643.60     5.994     1.656    64.329
 643.80     6.972     1.334    61.585
 644.00     7.902     1.037    59.451
 644.20     8.049     0.814    57.622
 644.40     7.927     0.616    61.585
 644.60     3.425     0.467    63.415
 644.80     1.859     0.418    60.366
 645.00     2.055     0.542    55.183
 645.20     2.251     0.765    49.695
 645.40     2.495     1.012    42.073
 645.60     3.596     1.334    38.415
 645.80     4.575     1.557    39.939
 646.00     5.431     1.632    41.463
 646.20     6.385     1.458    43.293
 646.40     7.364     1.285    44.817
 646.60     8.024     1.087    42.073
 646.80     8.098     0.938    39.329
 647.00     7.976     0.864    39.329
 647.20     5.162     0.938    41.463
 647.40     3.107     1.012    45.122
 647.60     2.936     1.111    50.000
 647.80     2.765     1.235    54.878
 648.00     2.569     1.334    59.451
 648.20     2.398     1.359    63.110
 648.40     2.275     1.334    65.244
 648.60     2.275     1.211    61.890
 648.80     2.251     1.087    58.841
 649.00     2.251     1.012    55.488
 649.20     2.226     0.988    53.049
 649.40     2.226     1.062    65.244
 649.60     2.251     1.186    68.598
 649.80     2.275     1.285    71.037
 650.00     2.275     1.384    70.427
 650.20     2.300     1.483    69.817
 650.40     2.300     1.508    67.073
 650.60     2.324     1.483    66.463
 650.80     2.349     1.433    66.463
 651.00     2.398     1.384    67.378
 651.20     2.446     1.334    70.427
 651.40     2.495     1.359    72.866
 651.60     2.569     1.409    75.305
 651.80     2.618     1.458    77.744
 652.00     2.691     1.533    78.963
 652.20     2.740     1.632    78.659
 652.40     2.740     1.681    78.354
 652.60     2.667     1.656    78.354
 652.80     2.618     1.607    78.354
 653.00     2.569     1.607    79.268
 653.20     2.520     1.632    80.183
 653.40     2.544     1.706    81.402
 653.60     2.691     1.755    80.488
 653.80     2.813     1.780    78.049
 654.00     2.813     1.731    75.610
 654.20     2.789     1.681    72.866
 654.40     2.765     1.681    71.037
 654.60     2.813     1.830    69.207
 654.80     2.985     2.003    68.598
 655.00     2.887     2.003    68.902
 655.20     2.813     1.978    70.122
 655.40     2.911     2.028    71.037
 655.60     3.009     2.028    71.341
 655.80     2.960     2.053    71.341
 656.00     2.911     2.028    70.732
 656.20     2.838     2.003    70.732
 656.40     2.789     1.929    71.646
 656.60     2.740     1.904    72.256
 656.80     2.691     1.879    73.171
 657.00     2.642     1.879    74.085
 657.20     2.813     1.879    74.390
 657.40     2.985     1.879    74.695
 657.60     3.180     1.879    75.000
 657.80     3.131     1.904    76.524
 658.00     3.083     1.929    79.573
 658.20     3.058     1.929    82.317
 658.40     2.985     1.978    85.366
 658.60     2.936     2.077    88.720
 658.80     2.887     2.251    91.463
 659.00     2.911     2.622    94.512
 659.20     3.034     3.167    97.256
 659.40     3.303     3.737    99.695
 659.60     3.352     4.084   101.829
 659.80     3.376     3.960   103.049
 660.00     3.401     3.464   103.963
 660.20     3.425     2.920    95.427
 660.40     3.450     2.498    86.585
 660.60     3.596     2.226    78.354
 660.80     3.768     2.523    71.951
 661.00     3.963     4.207    67.073
 661.20     4.110     5.099    63.720
 661.40    11.890     5.272    60.366
 661.60    17.125     4.381    57.927
 661.80    18.716     3.563    56.707
 662.00    14.946     2.771    57.317
 662.20    12.543     2.102    59.451
 662.40    10.141     1.755    62.500
 662.60     7.738     1.879    65.549
 662.80     5.336     2.251    66.463
 663.00     3.939     2.771    67.073
 663.20     3.572     2.895    65.854
 663.40     3.180     2.796    64.024
 663.60     2.789     2.622    61.280
 663.80     2.716     2.276    57.622
 664.00     2.765     1.854    53.049
 664.20     2.813     1.433    48.476
 664.40     2.862     1.062    44.207
 664.60     2.838     0.839    40.244
 664.80     2.740     0.715    37.500
 665.00     2.618     0.690    35.366
 665.20     2.520     0.715    33.537
