~Version information block
VERS.                            2.0:CWLS Log ASCII Standard-VERSION 2.0
WRAP.                            NO:One line per depth step
~Well information block
# MNEM.UNIT         DATA                       DESCRIPTION OF MNEMONIC
#---------      -------------------           -------------------------------
STRT.M                           370.00: Начальная глубина
STOP.M                          2251.00: Конечная  глубина
STEP.M                             0.20: Шаг квантования по глубине
NULL.                           -999.25: Отсутствие данных
WELL.                                11: Скважина
FLD .                              KURK: Площадь
LOC .                                  : Место
STAT.                                  : Область
CTRY.                            RUSSIA: Страна
COMP.                                  : Заказчик
SRVC.                                  : Исполнитель
DATE.                        18.12.1984: Дата каротажа
METD.                              BKZ5: Метод
SCAL.                               500: Масштаб по глубине
UWI. M38076KURK11S1:
#
~Parameter information block
#MNEM   .UNIT           VALUE                 DESCRIPTION OF MNEMONIC
#------------------    --------               ---------------------------
CATEGORY.                               -999.25:"Категория скважины"
DATED   .DD.MM.YYYY                     -999.25:"Дата разбуривания интервала (ДД.ММ.ГГГГ)"
FACE    .m                                 2251:"Глубина пробуренного забоя скважины(м)"
CBDA    .m                              -999.25:"Глубина текущего забоя скважины (м)"
ALT     .m                              -999.25:"Альтитуда стола ротора(m)"
SCD     .mm                               215.9:"Номинальный диаметр скважины (мм)"
CCD     .mm                             -999.25:"Диаметр кондуктора (мм)"
CD      .mm                             -999.25:"Диаметр колонны (мм)"
DCC     .m                              -999.25:"Глубина спуска кондуктора (м)"
CDP     .m                              -999.25:"Глубина спуска колонны (м)"
DFT     .                               -999.25:"Тип промывочной жидкости в скважине"
DFD     .g/s3                               1.2:"Плотность промывочной жидкости (г/см3)"
DFR     .Omm                            -999.25:"Сопротивление бурового раствора (Омм)"
RMF     .Omm                            -999.25:"Сопротивление фильтра промывочной жидкости (Омм)"
DFL     .sm3/30min                            9:"Водоотдача бурового раствора (см3/30мин)"
DFSLT   .g/l                            -999.25:"Минерализация промывачной жидкости (г/л)"
DFV     .s                                   35:"Вязкость бурового раствора (сек)"
RAUGK   .imp/min                        -999.25:"Коэффициент перехода ГК (имп/мкР/ч)"
RAU     .imp/min                        -999.25:"Коэффициент перехода НГК (усл.ед/имп/мин)"
RAUB    .imp/min                        -999.25:"Коэффициент перехода для большого зонда ННК (усл.ед/имп/мин)"
RAUS    .imp/min                        -999.25:"Коэффициент перехода для малого зонда ННК (усл.ед/имп/мин)"
TDLB    .imp/min                        -999.25:"Счет в эталонировочном устройстве ИННК - большой зонд (имп/мин)"
TDLS    .imp/min                        -999.25:"Счет в эталонировочном устройстве ИННК - малый зонд (имп/мин)"
TPNLGK  .s                              -999.25:"Постоянная времени ГК (сек)"
TPNLNK  .s                              -999.25:"Постоянная времени ННК (сек)"
TPNLNGK .s                              -999.25:"Постоянная времени НГК (сек)"
TPNLGGK .s                              -999.25:"Постоянная времени ГГК (сек)"
TPNLINNK.s                              -999.25:"Постоянная времени ИННК (сек)"
KNGK    .s                              -999.25:"КNGK"
SPEED   .m/h                            -999.25:"Скорость записи (м/ч)"
#
~Curve information block
DEPT.M                                  :
N11M05A.Omm                            : потенциал-зонд N11.0M0.5A,Ом.м
A2M05N.Omm                             : Подошвенный градиент-зонд A2.0M0.5N,Омм
PS.mV                                  : Потенциал самопроизвольной поляризации,мВ
~Other information block
#MNEM.UNIT                VALUE                 DESCRIPTION OF MNEMONIC
#-----------------      ------------          -------------------------------------------
TYPE.                                       Raw:"Тип данных"
TYPE1.                                      ost:"Тип записи"
KOG.                                    -999.25:"Тип кожуха прибора"
SRVC5.                                  -999.25:"Фамилия оператора каротажной партии"
NAME.                                  Bakanova:"Фамилия подготовившего las файл"
SRVC2.                                Geoproekt:"Предприятие, подготовившее LAS файл"
~A DEPT.M  N11M05A    A2M05N      PS
# ...
2226.80    48.318    74.226    99.085
2227.00    46.483    71.749    99.085
2227.20    44.648    69.272    98.780
2227.40    45.260    67.415    98.476
2227.60    45.872    65.557    98.171
2227.80    46.483    65.557    97.866
2228.00    47.095    66.176    97.256
2228.20    47.706    66.796    96.646
2228.40    48.318    68.653    96.037
2228.60    48.930    71.130    95.732
2228.80    49.541    73.607    95.122
2229.00    49.541    77.322    94.817
2229.20    48.930    79.799    94.817
2229.40    48.930    82.895    94.817
2229.60    48.930    85.991    94.512
2229.80    48.318    90.944    94.512
2230.00    48.318    93.421    94.512
2230.20    48.318    87.229    93.902
2230.40    47.706    80.418    93.598
2230.60    47.706    74.226    92.988
2230.80    49.541    74.845    92.378
2231.00    51.376    74.226    92.073
2231.20    53.211    73.607    91.768
2231.40    55.046    72.368    91.768
2231.60    56.269    69.892    92.073
2231.80    58.104    66.796    92.073
2232.00    59.939    66.176    92.073
2232.20    62.385    66.796    92.073
2232.40    64.832    68.034    91.768
2232.60    66.667    72.988    91.463
2232.80    69.113    79.799    91.463
2233.00    70.948    86.610    90.549
2233.20    73.394    92.183    89.939
2233.40    75.229    97.755    89.634
2233.60    77.676   105.186    89.024
2233.80    79.511   114.474    88.415
2234.00    81.957   124.381    87.500
2234.20    83.792   133.669    86.890
2234.40    86.239   141.718    86.280
2234.60    88.073   148.529    86.280
2234.80    90.520   152.864    86.280
2235.00    90.520   154.721    86.280
2235.20    86.239   157.198    86.585
2235.40    83.180   162.771    86.585
2235.60    78.899   169.582    86.585
2235.80    75.229   176.393    86.585
2236.00    70.948   182.585    85.976
2236.20    67.890   188.777    85.671
2236.40    64.220   191.873    85.061
2236.60    59.083   194.969    84.451
2236.80    54.924   195.588    84.451
2237.00    50.765   159.056    84.756
2237.20    46.606   134.907    84.756
2237.40    42.446   119.427    85.061
2237.60    38.287   106.424    85.366
2237.80    36.697    95.279    85.976
2238.00    35.352    87.229    86.280
2238.20    34.006    80.418    86.585
2238.40    32.661    72.988    86.890
2238.60    31.315    67.415    87.195
2238.80    30.092    62.461    87.500
2239.00    29.969    56.889    87.805
2239.20    29.847    51.316    87.805
2239.40    29.725    46.362    87.195
2239.60    28.379    41.409    85.671
2239.80    27.034    37.694    83.841
2240.00    25.566    34.598    81.098
2240.20    24.220    33.736    77.439
2240.40    22.875    34.491    72.866
2240.60    21.407    35.245    68.598
2240.80    20.061    35.999    64.634
2241.00    18.838    36.753    60.976
2241.20    17.492    37.508    57.927
2241.40    16.024    36.393    55.488
2241.60    14.679    36.393    53.049
2241.80    13.333    36.022    51.220
2242.00    11.865    33.297    49.085
2242.20    10.520    26.486    47.561
2242.40     9.297    20.542    46.646
2242.60    11.743    11.997    47.256
2242.80    13.823    10.759    48.171
2243.00    16.147    11.625    49.390
2243.20    18.349    13.607    51.524
2243.40    20.428    14.598    53.963
2243.60    22.630    13.978    56.402
2243.80    22.997    12.864    58.232
2244.00    23.242    11.873    58.537
2244.20    23.731    11.378    58.841
2244.40     8.807    17.817    58.232
2244.60     6.850    29.954    57.012
2244.80     6.606    30.201    55.793
2245.00     6.239    31.440    54.268
2245.20     5.872    32.554    52.439
2245.40    11.376    31.316    50.610
2245.60    16.391    23.142    49.390
2245.80    20.673    20.913    49.390
2246.00    21.896    18.808    51.524
2246.20    22.752    17.198    55.488
2246.40    23.731    16.827    60.061
2246.60    24.587    19.551    64.024
2246.80    25.443    22.895    67.683
2247.00    26.422    25.743    71.646
2247.20    27.523    28.220    72.561
2247.40    34.618    30.325    73.171
2247.60   -999.25    32.307    74.085
2247.80   -999.25    34.288    74.695
2248.00   -999.25    40.195    75.610
2248.20   -999.25    49.780    76.220
2248.40   -999.25    59.365    76.220
2248.60   -999.25    56.889    76.220
2248.80   -999.25    53.793    76.524
2249.00   -999.25    49.458    76.524
2249.20   -999.25    43.885    76.524
2249.40   -999.25    40.170    76.524
2249.60   -999.25    36.455    76.829
2249.80   -999.25   -999.25    76.829
2250.00   -999.25   -999.25    76.829
2250.20   -999.25   -999.25    76.829
2250.40   -999.25   -999.25    77.134
2250.60   -999.25   -999.25    77.134
2250.80   -999.25   -999.25    77.134
2251.00   -999.25   -999.25    76.829
